OBJECT ID,AtcoCode,Common Name,Latitude,Longitude,Easting,Northing
1,700000000000,Mount Eagles,54.55280285,-6.04514613,326532,368923
2,700000000001,Custom House Square,54.60111821,-5.92295637,334277,374527
3,700000000002,Lagmore Reservoir,54.55497687,-6.04302044,326662,369169
4,700000000003,Station Street,54.60066509,-5.91859681,334561,374485
5,700000000004,Teeling Avenue,54.55476448,-6.04177322,326744,369147
6,700000000005,Short Strand (Newtownards Road),54.60017951,-5.9081132,335240,374451
7,700000000006,Glendowan Park,54.55390215,-6.03981228,326873,369055
8,700000000007,Tower Street,54.59979049,-5.90507667,335437,374413
9,700000000008,Glenfearna,54.55415589,-6.03275127,327329,369096
10,700000000009,Templemore Ave [N'ards Road],54.59935773,-5.90164099,335661,374372
11,700000000010,Lagmore Meadows,54.55132957,-6.03166808,327408,368783
12,700000000011,Dee Street,54.59889823,-5.89806729,335893,374328
13,700000000012,Lagmore Drive,54.54965908,-6.03193217,327396,368597
14,700000000013,Ribble Street,54.59832135,-5.89352515,336188,374272
15,700000000014,Lagmore Dale,54.54840877,-6.02908669,327584,368463
16,700000000015,Connswater,54.59778748,-5.89364252,336183,374212
17,700000000016,Lagmore Dale,54.54828966,-6.029528,327556,368449
18,700000000018,Lagmore Drive,54.5487488,-6.03175963,327410,368496
19,700000000019,Holywood Arches (Holywood Road),54.59811465,-5.88750489,336578,374261
20,700000000020,Lagmore Meadows,54.55094845,-6.03221013,327374,368740
21,700000000021,Dundela Park,54.60005049,-5.88464994,336756,374482
22,700000000022,Glenfearna,54.55382339,-6.03219533,327366,369060
23,700000000023,Parkgate Avenue,54.60189721,-5.88286722,336865,374691
24,700000000024,Glendowan Park,54.55377369,-6.03968422,326882,369041
25,700000000026,Teeling Avenue,54.55449341,-6.04168227,326750,369117
26,700000000027,Larkfield,54.60485059,-5.88014462,337031,375025
27,700000000028,Lagmore Grove,54.55161252,-6.02995233,327518,368818
28,700000000029,Palmerston Road,54.60571262,-5.87601362,337295,375129
29,700000000030,Summerhill Estate,54.54701473,-6.02349727,327950,368318
30,700000000031,Palmerston Park,54.60712532,-5.87459341,337382,375289
31,700000000032,Gardenmore Road,54.55008091,-6.02335253,327950,368659
32,700000000033,Station Road,54.60809262,-5.87544077,337324,375395
33,700000000034,Brook Centre,54.55259418,-6.02183623,328040,368942
34,700000000035,Sydenham Station,54.60933981,-5.87687729,337227,375531
35,700000000037,Inverary Drive,54.61039672,-5.87463961,337368,375653
36,700000000038,Juniper Park,54.55474777,-6.02621294,327750,369173
37,700000000039,Inverary Playing Fields,54.6097303,-5.87250721,337508,375583
38,700000000040,Donegall Avenue,54.58790067,-5.95032039,332552,373004
39,700000000041,Inverary Avenue,54.60883044,-5.87038707,337648,375487
40,700000000042,Donegall Avenue,54.5859743,-5.95170117,332469,372787
41,700000000043,Carolhill,54.60839151,-5.86867815,337760,375441
42,700000000044,Donegall Parade,54.58483958,-5.95420235,332311,372656
43,700000000045,Ashfield Boys,54.61006141,-5.86660695,337888,375631
44,700000000046,"Aughnacloy, Hillcrest",54.42071521,-6.98255291,266095,352938
45,700000000047,Ashfield Girls,54.61105497,-5.86542562,337961,375744
46,700000000048,Balmoral Hotel,54.56043226,-5.99854432,329522,369857
47,700000000049,Blanchflower Park,54.61300488,-5.86298803,338112,375966
48,700000000050,Garnock Hill,54.56286879,-6.00121261,329342,370123
49,700000000051,Tillysburn Park,54.61471573,-5.86187416,338178,376159
50,700000000052,Brooke Drive,54.5641072,-6.00413289,329149,370255
51,700000000053,Knocknagoney Road,54.61887999,-5.85738052,338454,376631
52,700000000054,Blacks Court,54.56435128,-6.00571217,329046,370280
53,700000000055,Knocknagoney Primary,54.61856442,-5.85482602,338620,376601
54,700000000056,Erris Grove,54.56575691,-6.00977201,328779,370429
55,700000000057,School Court,54.61819333,-5.85325769,338723,376563
56,700000000058,Ringford Park,54.56611492,-6.0102339,328748,370468
57,700000000059,School Court,54.61809014,-5.85236138,338781,376553
58,700000000060,Trenchard,54.56511278,-6.00830356,328876,370360
59,700000000061,Knocknagoney Primary,54.61873929,-5.8570495,338476,376616
60,700000000062,Brooke Park,54.5629366,-6.00111189,329348,370131
61,700000000063,Parklands,54.61897128,-5.85953104,338315,376637
62,700000000064,Balmoral Hotel,54.56082111,-5.99869533,329511,369900
63,700000000065,Tillysburn Junction,54.61840697,-5.86034527,338264,376572
64,700000000066,Oakhurst,54.55935013,-5.99722139,329611,369739
65,700000000067,Tillysburn Park,54.61388595,-5.86183997,338183,376066
66,700000000068,Sunnyhill Park,54.55328802,-6.00717964,328986,369046
67,700000000069,Templeton House,54.61298097,-5.86278248,338125,375964
68,700000000070,Sunnyhill Park,54.55334934,-6.0070839,328992,369053
69,700000000071,Ashfield Girls,54.61089517,-5.86533727,337967,375727
70,700000000072,Cloona,54.56252277,-6.0174592,328292,370055
71,700000000073,Ashfield Boys,54.6093768,-5.867192,337853,375554
72,700000000074,Corrina Park,54.5601585,-6.01519306,328446,369796
73,700000000075,Carolhill,54.60845774,-5.86837518,337779,375449
74,700000000076,Corrina Park,54.56052004,-6.01587121,328401,369835
75,700000000077,Inverary Avenue,54.60863539,-5.87002576,337672,375466
76,700000000078,Cloona,54.56216754,-6.01728594,328304,370016
77,700000000079,Inverleith Drive,54.60935735,-5.87173722,337559,375543
78,700000000080,Old Golf Course Park,54.55706562,-6.01074872,328743,369460
79,700000000081,Inverary Playing Fields,54.61008092,-5.87354153,337440,375620
80,700000000082,Cherry Road,54.55382119,-6.01423982,328528,369092
81,700000000083,Sydenham Station,54.60914638,-5.87711955,337212,375509
82,700000000084,Cherry Park,54.55358966,-6.01687279,328358,369062
83,700000000085,Station Road,54.60816498,-5.87546796,337322,375403
84,700000000086,Aspen Walk,54.5549493,-6.01915612,328206,369209
85,700000000087,Palmerston Park,54.60722842,-5.8743249,337399,375301
86,700000000088,St Lukes,54.55496509,-6.02176782,328037,369206
87,700000000089,Larkfield Road,54.60515872,-5.87721878,337219,375065
88,700000000090,St Lukes,54.55504608,-6.02187386,328030,369215
89,700000000091,Larkfield,54.60522875,-5.87967611,337060,375068
90,700000000092,Aspen Walk,54.55495088,-6.01892723,328221,369209
91,700000000093,Strandburn Drive,54.60379642,-5.88100423,336979,374906
92,700000000094,Cherry Park,54.55373651,-6.01697353,328351,369078
93,700000000095,Parkgate Avenue,54.60271774,-5.88200436,336918,374784
94,700000000096,Cherry Road,54.5544182,-6.01361694,328566,369160
95,700000000097,Glendale Court,54.60011907,-5.88446067,336768,374490
96,700000000098,Old Golf Course Park,54.55663753,-6.01033994,328771,369413
97,700000000099,Connsbrook Avenue,54.59902254,-5.88498413,336738,374367
98,700000000100,Credenhill,54.55799231,-6.01240738,328633,369560
99,700000000101,Holywood Arches (Holywood Road),54.59825841,-5.886666,336632,374278
100,700000000102,Old Colin,54.56312273,-6.02111757,328054,370115
101,700000000103,Connswater,54.59744554,-5.89402193,336159,374174
102,700000000104,Laurelbank,54.56324044,-6.02673217,327690,370118
103,700000000105,Hunt Street,54.59823277,-5.8937662,336173,374262
104,700000000106,Pembroke Loop,54.56565699,-6.02670819,327684,370387
105,700000000107,Dee Street,54.59872083,-5.89754792,335927,374309
106,700000000108,Pembroke Manor,54.5675914,-6.02356849,327881,370608
107,700000000109,Templemore Ave [N'ards Road],54.59921936,-5.90142205,335675,374357
108,700000000110,Colinbrook Avenue,54.57037111,-6.02652678,327681,370912
109,700000000111,Tower Street,54.59948921,-5.90351284,335539,374383
110,700000000112,Springbank Close,54.568994,-6.02803145,327588,370756
111,700000000113,Bryson Street,54.59986392,-5.90625542,335361,374419
112,700000000114,Springbank Drive,54.56795853,-6.02955046,327493,370638
113,700000000115,Short Strand (Newtownards Road),54.60020076,-5.90901733,335181,374451
114,700000000116,Pantridge Road,54.56411509,-6.02857625,327568,370212
115,700000000117,Bridge End,54.599825,-5.91704078,334664,374394
116,700000000118,Laurelbank,54.56330873,-6.02651241,327704,370126
117,700000000119,Oxford Street,54.59892068,-5.92160176,334372,374285
118,700000000120,Old Colin,54.56336303,-6.02103641,328058,370142
119,700000000121,Waterfront,54.59749723,-5.92138026,334391,374127
120,700000000122,Brian's Well Close,54.56315845,-6.03438952,327195,370095
121,700000000123,Lanyon Place Station [Glider],54.59568384,-5.91805267,334612,373931
122,700000000124,Glenkeen,54.56105353,-6.03589773,327104,369858
123,700000000125,Short Strand (Albertbridge Road),54.59571445,-5.90881163,335209,373952
124,700000000126,Brian's Well Close,54.56345751,-6.03439621,327194,370128
125,700000000128,Glenwood,54.56059961,-6.0298592,327496,369818
126,700000000129,Templemore Avenue,54.59533991,-5.90276284,335601,373922
127,700000000130,Woodside,54.55630393,-6.02947878,327534,369341
128,700000000132,Bell Steel Road [Stewartstown Road],54.55772464,-6.02577864,327769,369506
129,700000000133,Avoniel,54.59644679,-5.89820752,335892,374054
130,700000000134,Donegall Square North,54.59729778,-5.93109503,333764,374086
131,700000000136,Upper Queen Street,54.5964841,-5.93309568,333637,373992
132,700000000137,Strandtown,54.59964928,-5.88249091,336897,374441
133,700000000138,Upper Queen Street,54.59611506,-5.93300992,333644,373951
134,700000000139,Strand Cinema,54.60046303,-5.87982009,337067,374537
135,700000000140,Grand Opera House,54.59569167,-5.93688831,333395,373896
136,700000000141,Park Avenue,54.60122114,-5.87820494,337169,374625
137,700000000142,Stanley Street,54.59553507,-5.93956932,333222,373874
138,700000000143,St Marks,54.60333846,-5.87521981,337354,374866
139,700000000144,Recreation Centre,54.59528879,-5.94502765,332870,373836
140,700000000145,Clonaver,54.60493864,-5.87293797,337496,375049
141,700000000146,Roden Street,54.59519778,-5.94708055,332738,373822
142,700000000147,Tudor Dale,54.60693397,-5.87046289,337650,375276
143,700000000148,Servia Street,54.59506459,-5.94967158,332571,373802
144,700000000149,Glendhu Manor,54.61512031,-5.86021221,338284,376207
145,700000000151,Glenluce Drive,54.61480407,-5.85661523,338518,376179
146,700000000152,Royal Hospital (Grosvenor Road),54.59546125,-5.95322102,332340,373840
147,700000000153,Upper Garnerville Road,54.61479134,-5.85288688,338758,376185
148,700000000154,Colligan Street,54.59606787,-5.95586373,332167,373902
149,700000000155,Tudor Dale,54.60724905,-5.86987362,337687,375312
150,700000000156,Iris Street,54.59723154,-5.95802216,332024,374028
151,700000000157,Quarry Road,54.61249479,-5.85250701,338791,375930
152,700000000158,Blackstaff,54.59899008,-5.95976325,331906,374220
153,700000000159,Glenmillan,54.61056727,-5.85256287,338794,375715
154,700000000160,Millennium Way,54.59988417,-5.96060261,331849,374318
155,700000000161,Old Holywood Road (Kennelbridge),54.60918673,-5.85121721,338885,375564
156,700000000162,Elswick Street,54.60154287,-5.96327097,331671,374498
157,700000000163,Cairnburn Road,54.6079254,-5.85100506,338903,375424
158,700000000164,Pollard Street,54.60220255,-5.96509364,331551,374568
159,700000000165,Belmont Allotments,54.60611818,-5.85447069,338686,375216
160,700000000166,Springdale Gardens,54.60092963,-5.96899875,331303,374419
161,700000000167,CIYMS Grounds,54.60541054,-5.86025249,338314,375126
162,700000000168,Springfield Roundabout,54.5994834,-5.97171346,331132,374253
163,700000000169,Orchard Lane,54.60438012,-5.86360748,338101,375005
164,700000000170,Springfield,54.59933364,-5.97350056,331017,374233
165,700000000171,Circular Road,54.60612875,-5.87078684,337631,375185
166,700000000172,High Side,54.60138836,-5.97440442,330952,374460
167,700000000173,Station Road,54.60587874,-5.87151728,337585,375156
168,700000000174,High Gate,54.60392675,-5.97484854,330915,374741
169,700000000175,Clonaver,54.60438733,-5.8734557,337465,374986
170,700000000176,West Circular Crescent,54.60524463,-5.97450697,330933,374889
171,700000000177,St Marks,54.60292017,-5.87555795,337334,374819
172,700000000178,Ballygomartin Baptist Church,54.60722676,-5.97375844,330975,375111
173,700000000179,Park Avenue,54.6011329,-5.87809204,337176,374615
174,700000000180,Twaddell Avenue,54.61010678,-5.96756824,331366,375443
175,700000000181,Strandtown,54.59930039,-5.88323852,336850,374401
176,700000000182,Woodvale Parade,54.61188239,-5.96741246,331370,375641
177,700000000184,Woodvale Drive,54.61344769,-5.96498664,331522,375820
178,700000000186,Woodvale Drive,54.61281434,-5.96610617,331452,375747
179,700000000187,Avoniel,54.59626645,-5.89843304,335878,374034
180,700000000188,Woodvale Parade,54.61160748,-5.96731065,331378,375610
181,700000000189,Templemore Avenue,54.59532766,-5.90196189,335653,373923
182,700000000190,Lanyon Place [bus stop],54.59517251,-5.91688234,334689,373877
183,700000000191,Bretland House,54.62184224,-5.91380593,334800,376851
184,700000000192,School of Denistry,54.59345233,-5.95346739,332331,373616
185,700000000194,Rehabilitation Unit,54.59171674,-5.95707583,332103,373416
186,700000000195,Short Strand (Albertbridge Road),54.5954176,-5.90837594,335238,373920
187,700000000196,Hospital Stores,54.59039111,-5.95785391,332057,373267
188,700000000198,Hospital Stores,54.59056481,-5.95803088,332045,373286
189,700000000199,Lanyon Place Station [Glider],54.59561077,-5.9162397,334730,373927
190,700000000200,Rehabilitation Unit,54.59158059,-5.95754775,332073,373400
191,700000000201,Sydenham Drive,54.60062519,-5.8777586,337200,374559
192,700000000202,Royal Maternity Hospital,54.59323389,-5.95433851,332275,373590
193,700000000203,Ranfurly Drive,54.6002548,-5.8748149,337391,374524
194,700000000204,Institute of Pathology,54.59470556,-5.95157231,332449,373759
195,700000000205,Belmont Road,54.60010767,-5.87331837,337488,374510
196,700000000206,Institute of Pathology,54.59474663,-5.95140005,332460,373764
197,700000000207,Clonallon Gardens,54.59989371,-5.87154137,337604,374490
198,700000000208,Springfield Roundabout,54.59950525,-5.9719445,331117,374255
199,700000000209,Clonallon Court,54.59963688,-5.86933239,337747,374466
200,700000000210,Springvale Parade,54.60023154,-5.97050487,331208,374338
201,700000000211,Belmont Church Road,54.59965345,-5.86510922,338020,374476
202,700000000212,Belfast Met Springvale,54.60165943,-5.96867806,331321,374501
203,700000000213,Pine Lodge,54.60003852,-5.86299982,338155,374523
204,700000000214,Workman Avenue,54.60242866,-5.96571689,331510,374592
205,700000000215,Pirrie Road,54.60058179,-5.85850303,338444,374592
206,700000000216,Lanark Way,54.60149867,-5.96252359,331719,374494
207,700000000217,Old Holywood Road,54.60660399,-5.85134201,338886,375277
208,700000000218,Millennium Way,54.59984028,-5.9603367,331866,374314
209,700000000219,Campbell College,54.60118579,-5.85370033,338752,374669
210,700000000220,Blackstaff,54.59895513,-5.95952982,331921,374217
211,700000000221,Schomberg Avenue,54.6031577,-5.852408,338829,374891
212,700000000222,Iris Street,54.59780647,-5.95837103,332000,374091
213,700000000223,Massey Avenue,54.60517248,-5.8479804,339108,375124
214,700000000224,Royal Hospital (Grosvenor Road),54.59567583,-5.95368995,332309,373863
215,700000000225,Netherleigh Mews,54.60435557,-5.8465067,339206,375036
216,700000000226,Gibson Street,54.59520452,-5.95026293,332532,373817
217,700000000227,Castlehill,54.60406033,-5.84426556,339352,375007
218,700000000228,Roden Street,54.59530827,-5.94789867,332685,373833
219,700000000229,Cloverhill Gardens,54.60359334,-5.84154777,339529,374961
220,700000000230,Cullingtree Road,54.59535897,-5.94612366,332799,373842
221,700000000231,Massey Avenue Gates,54.60246784,-5.83889888,339704,374841
222,700000000232,Stanley Street,54.59572812,-5.93877039,333273,373897
223,700000000233,Parliament Buildings,54.60341605,-5.8321315,340138,374960
224,700000000234,Great Victoria Street,54.59581161,-5.93635181,333429,373911
225,700000000235,Department of Health,54.60041598,-5.82745794,340450,374635
226,700000000236,Seal Road,54.62956421,-5.89792362,335800,377741
227,700000000237,Castle Buildings,54.59860623,-5.82847182,340391,374432
228,700000000238,Glengall Street,54.59505877,-5.9360695,333450,373827
229,700000000239,Stormont Sports Ground,54.5972103,-5.82879372,340375,374276
230,700000000240,Europa Buscentre,54.59482697,-5.93527444,333439,373811
231,700000000241,Dundonald House,54.59560886,-5.82717678,340485,374101
232,700000000242,West Circular Close,54.60760417,-5.97331111,331003,375154
233,700000000243,Craigantlet Buildings,54.5971126,-5.82766432,340448,374267
234,700000000244,Ballygomartin Baptist Church,54.60681328,-5.97374802,330977,375065
235,700000000245,Castle Buildings,54.59868893,-5.82862019,340381,374441
236,700000000246,West Circular Crescent,54.60577836,-5.97418639,330952,374949
237,700000000247,Department of Health,54.6004436,-5.82763173,340439,374638
238,700000000248,High Gate,54.6042748,-5.97453966,330934,374781
239,700000000249,Parliament Buildings,54.60322809,-5.83217244,340136,374939
240,700000000250,Springfield Parade,54.60249518,-5.97450422,330942,374583
241,700000000251,Massey Avenue Gates,54.60229176,-5.83859867,339724,374822
242,700000000252,High Side,54.6009697,-5.97408475,330974,374414
243,700000000253,Massey Avenue,54.60335861,-5.84118419,339553,374935
244,700000000254,"Aughnacloy, Hillcrest",54.42044983,-6.98229586,266112,352908
245,700000000255,Castlehill,54.60394138,-5.84443912,339341,374994
246,700000000256,Springmartin Road,54.59756598,-5.97632738,330840,374031
247,700000000257,Massey Green,54.60485555,-5.84935917,339020,375086
248,700000000258,Springfield Park,54.59752725,-5.98000171,330603,374020
249,700000000259,Old Holywood Road,54.60404845,-5.85096495,338919,374993
250,700000000260,Divismore Park,54.59681388,-5.98348287,330380,373934
251,700000000261,Schomberg Avenue,54.60309566,-5.85230423,338836,374884
252,700000000262,Divismore Crescent,54.59476873,-5.98692623,330164,373700
253,700000000263,Campbell College,54.60185545,-5.85304354,338792,374745
254,700000000264,Mount Alverno Garage,54.5929645,-5.98990787,329977,373493
255,700000000265,Belmont Drive,54.60022379,-5.85975563,338364,374550
256,700000000266,Whiterock Business Park,54.59173167,-5.99120549,329897,373354
257,700000000267,Strathearn Court,54.59974084,-5.86401659,338090,374488
258,700000000268,Turf Lodge Shops,54.58968695,-5.99286096,329797,373123
259,700000000269,Belmont Primary School,54.59936216,-5.86642442,337936,374441
260,700000000270,Monagh Road,54.58661743,-5.99167552,329883,372784
261,700000000271,Belmont Park,54.59941897,-5.86855301,337798,374443
262,700000000272,Opp Aitnamona Crescent,54.58391644,-5.99134435,329913,372484
263,700000000273,Edenville Crescent,54.59993533,-5.87279893,337522,374492
264,700000000274,Glen Road,54.58209533,-5.98925021,330054,372285
265,700000000275,Sydenham Drive,54.60029593,-5.87642906,337287,374525
266,700000000276,Opp Fruithill Park/Kennedy Way,54.58126411,-5.98745309,330173,372196
267,700000000277,Shaftesbury Square,54.58917114,-5.9334569,333638,373177
268,700000000279,Botanic Avenue,54.58697423,-5.93249903,333707,372934
269,700000000280,Stop After Council Depot,54.57908493,-5.98392564,330408,371960
270,700000000281,College Green,54.58484127,-5.93191247,333752,372698
271,700000000282,Os Kennedy Way Council Depot,54.57920911,-5.98436807,330379,371973
272,700000000283,Rugby Road,54.58476468,-5.92924333,333925,372695
273,700000000284,Fruithill Park,54.58109277,-5.98741513,330176,372177
274,700000000285,Dudley Street,54.58501186,-5.92686155,334078,372727
275,700000000286,Glen Road,54.58211201,-5.9898954,330013,372286
276,700000000287,University Avenue,54.58542111,-5.92366914,334283,372778
277,700000000288,Aitnamona Crescent,54.58385027,-5.99168793,329891,372476
278,700000000289,Agincourt Avenue,54.58410974,-5.92230831,334375,372635
279,700000000290,Monagh Road,54.58652817,-5.99171085,329881,372774
280,700000000291,Ormeau Park,54.58178047,-5.92135715,334444,372378
281,700000000292,Turf Lodge Shops,54.58999859,-5.99292484,329792,373158
282,700000000293,Candahar Street,54.58048425,-5.92057867,334499,372235
283,700000000294,Mount Alverno Garage,54.59287642,-5.99036298,329948,373483
284,700000000295,South Parade,54.5789175,-5.91937209,334582,372063
285,700000000296,New Barnsley Parade,54.5947731,-5.98718907,330147,373700
286,700000000297,Ulidia,54.57705387,-5.91805201,334674,371858
287,700000000298,New Barnsley Drive,54.59564462,-5.98556774,330249,373800
288,700000000299,Ballynafeigh,54.5742283,-5.91601859,334814,371547
289,700000000300,Divismore Park ,54.59665181,-5.98400153,330347,373915
290,700000000301,Bell Towers,54.57240593,-5.91470389,334905,371347
291,700000000302,Springfield Park,54.59764387,-5.97991363,330608,374033
292,700000000303,Rosetta St John's Church,54.56963989,-5.91381922,334972,371041
293,700000000304,Dunboyne Park,54.59835629,-5.97469426,330943,374122
294,700000000305,Hampton Park,54.56708507,-5.91348417,335002,370757
295,700000000306,John Paul II Primary School,54.59393444,-5.98717568,330151,373606
296,700000000307,Forestside,54.56477325,-5.90961578,335260,370507
297,700000000308,Whiterock Leisure Centre,54.59292615,-5.98472717,330312,373499
298,700000000309,Lisburn and Castlereagh Council,54.56519742,-5.90888622,335306,370556
299,700000000310,Ballymurphy Road,54.59185358,-5.98217628,330480,373384
300,700000000311,Forestside,54.56458383,-5.91119352,335158,370483
301,700000000312,Corrigan Park,54.59118578,-5.98060055,330584,373313
302,700000000313,Forster Green,54.56084726,-5.9091383,335304,370071
303,700000000314,St Maria Goretti Nursery Sch,54.59076179,-5.97671126,330837,373273
304,700000000315,Mount Oriel,54.55857921,-5.90909751,335314,369819
305,700000000316,Brittons Parade,54.59031744,-5.97376753,331029,373229
306,700000000317,Woodbreda,54.55405969,-5.90839452,335374,369317
307,700000000318,Whiterock Road,54.58924403,-5.97138698,331186,373114
308,700000000319,Beechill Park,54.55166628,-5.90852143,335374,369051
309,700000000320,Brittons Parade,54.59048508,-5.97520873,330935,373245
310,700000000321,Glenhugh Park,54.54884879,-5.90609603,335540,368742
311,700000000322,St Maria Goretti Nursery Sch,54.59075236,-5.9772223,330804,373271
312,700000000323,Knockbreda Cemetery,54.56291512,-5.91021072,335227,370299
313,700000000324,Corrigan Park,54.59096199,-5.98008972,330618,373289
314,700000000325,Gas Works,54.59143262,-5.92556081,334141,373444
315,700000000326,Ballymurphy Road,54.59158469,-5.98186916,330501,373355
316,700000000327,Portadown Train Station [bus stop],54.42423792,-6.4463106,300894,353965
317,700000000328,Whiterock Library,54.59342436,-5.98604871,330225,373552
318,700000000329,Shaftesbury Avenue,54.58707437,-5.92355275,334285,372963
319,700000000330,Finaghy Road North,54.56962654,-5.99252377,329882,370891
320,700000000331,Hatfield Street,54.5857434,-5.92301064,334324,372816
321,700000000332,Finaghy Road North,54.569435,-5.99256703,329880,370870
322,700000000333,Rosetta Knockbreda Road,54.57041189,-5.91187287,335095,371131
323,700000000334,Shaws Road [Stewartstown Road],54.57390513,-6.00069607,329340,371352
324,700000000335,Knock Eden,54.57136287,-5.90921467,335264,371241
325,700000000336,Rosgoill Park,54.57451127,-6.00301749,329188,371415
326,700000000337,Mount Merrion Park,54.57156668,-5.905256,335519,371272
327,700000000338,Hillhead Cottages,54.57543654,-6.00449021,329090,371516
328,700000000339,Wynchurch,54.57154602,-5.90336057,335642,371273
329,700000000340,Lenadoon Avenue,54.57661227,-6.00932018,328774,371638
330,700000000341,Mount Merrion Rosetta Road,54.57097795,-5.90144349,335768,371214
331,700000000342,Lenadoon Avenue,54.5766932,-6.01019295,328717,371645
332,700000000343,Mount Merrion Rosetta Road,54.57075905,-5.90116836,335786,371190
333,700000000344,Hillhead Cottages,54.57566082,-6.00468064,329077,371540
334,700000000345,Wynchurch,54.57148484,-5.90391553,335606,371265
335,700000000346,Shaws Road [Stewartstown Road],54.57406737,-6.0010155,329319,371370
336,700000000347,Knock Eden,54.5713519,-5.90842185,335315,371242
337,700000000348,St Michael's,54.57189792,-5.9947966,329728,371140
338,700000000349,Knockbreda Road,54.57029962,-5.91277764,335037,371116
339,700000000350,Bell Steel Road [Stewartstown Road],54.55701924,-6.02634809,327734,369426
340,700000000351,Glendale Park,54.55667305,-5.90811926,335383,369609
341,700000000352,Woodside,54.55644941,-6.0301365,327491,369356
342,700000000353,Cairnshill Court,54.54723424,-5.90385615,335690,368566
343,700000000354,Brian's Well Road,54.55916717,-6.03150506,327394,369656
344,700000000355,Finsbury,54.54932206,-5.90070888,335887,368805
345,700000000356,Glenwood,54.56042191,-6.03020776,327474,369798
346,700000000357,Cairnshill Park,54.55029015,-5.89854102,336024,368917
347,700000000358,Bell Steel Road,54.56238201,-6.02866623,327568,370019
348,700000000359,Malvern,54.55218198,-5.89566178,336204,369133
349,700000000360,Suffolk Library,54.56976866,-6.00785999,328890,370879
350,700000000361,Four Winds,54.55628297,-5.89232736,336406,369596
351,700000000362,Suffolk Library,54.56927526,-6.01063661,328712,370819
352,700000000363,Glendale,54.55805956,-5.90552972,335546,369768
353,700000000364,Woodbourne (Suffolk Road),54.56825806,-6.01348833,328531,370700
354,700000000365,Colby Park,54.55727614,-5.90314583,335703,369685
355,700000000366,Riverside Mews,54.56964816,-6.01469851,328448,370853
356,700000000367,Glenholm,54.5566383,-5.90043054,335881,369620
357,700000000368,Falcarragh,54.5709266,-6.01654088,328325,370992
358,700000000369,Four Winds Park,54.55621742,-5.8962367,336154,369581
359,700000000370,Donegal Celtic,54.57361767,-6.02140371,328002,371282
360,700000000371,Four Winds Park,54.5561778,-5.89673709,336121,369576
361,700000000372,Suffolk Heights,54.57452864,-6.02373444,327849,371380
362,700000000373,Glenholm,54.55658693,-5.90050513,335876,369614
363,700000000374,Suffolk Road Junction,54.57590397,-6.02365391,327850,371533
364,700000000375,Colby Park,54.55712423,-5.90274349,335730,369669
365,700000000376,Glencolin,54.5761116,-6.01973071,328103,371563
366,700000000377,Glendale,54.55775684,-5.90528232,335563,369735
367,700000000378,St Oliver Plunkett,54.57622759,-6.01755095,328243,371580
368,700000000379,Foresthill View,54.56251514,-5.90975587,335258,370256
369,700000000380,Shaws Road Junction,54.57648883,-6.01438374,328447,371615
370,700000000381,Malvern,54.55188357,-5.89561489,336208,369100
371,700000000382,Rosnareen,54.57849277,-6.00567406,329004,371854
372,700000000383,Cairnshill Park,54.55037229,-5.89808905,336053,368927
373,700000000384,Hamill Park,54.57906619,-6.00338473,329150,371922
374,700000000385,Finsbury,54.54911873,-5.90093519,335873,368782
375,700000000386,All Saints College,54.58034244,-5.99855943,329458,372073
376,700000000387,Beechill Park,54.55221229,-5.90922393,335327,369110
377,700000000388,Coolnasilla,54.58081729,-5.9956864,329642,372131
378,700000000389,Forster Green,54.5623865,-5.90881072,335320,370243
379,700000000390,Saint Teresa's,54.58088435,-5.99076263,329960,372147
380,700000000391,Forestside,54.56500646,-5.90882833,335310,370535
381,700000000392,Gransha Shops,54.58302594,-5.98533977,330304,372396
382,700000000393,Forestside,54.56502859,-5.9090704,335294,370537
383,700000000394,Glen Parade,54.58382514,-5.98099983,330582,372493
384,700000000395,Forestside Upper Galwally,54.56505135,-5.90934756,335276,370539
385,700000000396,Millfield,54.59954247,-5.93746342,333345,374324
386,700000000397,Cairnshill Court,54.54713099,-5.90380062,335694,368555
387,700000000398,Divis Tower,54.60015026,-5.9427183,333004,374381
388,700000000399,Beechill Road,54.54788458,-5.90556029,335578,368636
389,700000000400,St Michael's,54.57175787,-5.99447872,329749,371125
390,700000000401,Glenhugh Park,54.54930049,-5.90673652,335497,368791
391,700000000402,McKinstry Road,54.54667939,-6.02827369,327642,368272
392,700000000403,Woodbreda,54.5541107,-5.90870683,335354,369322
393,700000000405,Mount Oriel,54.55867737,-5.90927712,335302,369830
394,700000000406,Lagmore Avenue,54.55141518,-6.02776696,327660,368800
395,700000000407,Breda Park,54.55988001,-5.90947154,335285,369963
396,700000000408,Lagmore grove,54.55296331,-6.02738308,327680,368973
397,700000000409,Hampton Park,54.56586038,-5.91279189,335051,370622
398,700000000410,Twinbrook Road,54.55520771,-6.02686033,327707,369223
399,700000000411,Annadale Avenue,54.56882723,-5.91387129,334971,370950
400,700000000413,Rosetta St John's Church,54.5705324,-5.91410919,334950,371140
401,700000000415,Ardmore Avenue,54.5733897,-5.91557225,334846,371455
402,700000000416,Colin Connect,54.55938929,-6.0234507,327914,369695
403,700000000417,Ballynafeigh,54.57458137,-5.91645345,334785,371586
404,700000000418,Upper Dunmurry Lane,54.56309903,-6.02029868,328107,370114
405,700000000419,Ulidia,54.57691381,-5.91815106,334668,371842
406,700000000420,Michael Ferguson Roundabout,54.56412,-6.01959748,328149,370229
407,700000000421,South Parade,54.57843033,-5.91925771,334591,372009
408,700000000422,Colin Connect,54.55949227,-6.02364928,327901,369706
409,700000000423,Candahar Street,54.58080922,-5.92102432,334469,372270
410,700000000425,Agincourt Avenue,54.58387351,-5.92243644,334368,372609
411,700000000427,Hatfield Street,54.58574761,-5.92315619,334315,372816
412,700000000428,Twinbrook Road,54.55550825,-6.02638026,327737,369258
413,700000000429,McClure Street,54.58792857,-5.92419599,334241,373056
414,700000000430,Lagmore Avenue,54.55026238,-6.02775879,327664,368671
415,700000000431,Cromac Place,54.59082145,-5.92555055,334144,373376
416,700000000433,Gas Works,54.59169606,-5.92592681,334116,373472
417,700000000435,University Avenue,54.58525877,-5.92429933,334243,372759
418,700000000436,Glengoland,54.56551189,-6.01560467,328403,370391
419,700000000437,Dudley Street,54.58502185,-5.92608522,334128,372729
420,700000000438,Woodbourne (Andersonstown Road),54.56718706,-6.01223734,328615,370583
421,700000000439,Rugby Road,54.58467241,-5.92976268,333892,372683
422,700000000441,College Green,54.58537951,-5.9325968,333706,372757
423,700000000442,Lenadoon Avenue (Andersonstown Road),54.56989882,-6.00703404,328943,370895
424,700000000443,Botanic Avenue,54.58785677,-5.93308395,333666,373032
425,700000000445,Shaftesbury Square,54.58907695,-5.93361111,333628,373166
426,700000000446,St Genevieve's,54.57224731,-6.00078833,329340,371168
427,700000000447,Short Strand (Ravenhill Road),54.59525033,-5.91101811,335068,373897
428,700000000448,Shaw's Road,54.57327919,-5.99771548,329535,371288
429,700000000449,Shamrock Street,54.59288928,-5.91082719,335088,373634
430,700000000450,Slievegallion Drive,54.57332564,-5.99081839,329981,371306
431,700000000451,My Ladys Road,54.59122766,-5.91016077,335137,373451
432,700000000452,Casement Park,54.57411249,-5.98639824,330264,371402
433,700000000453,Toronto Street,54.58985533,-5.9103565,335129,373297
434,700000000455,Ravenhill Avenue,54.58823212,-5.91067116,335114,373116
435,700000000456,Fruithill Park,54.57611802,-5.98175511,330558,371634
436,700000000457,Ravenhill Court,54.58609837,-5.91113156,335091,372878
437,700000000458,Beech Hall,54.5789867,-5.97991517,330668,371956
438,700000000459,Health Centre,54.41878483,-6.43987413,301325,353367
439,700000000460,Kennedy Centre,54.58041743,-5.98031764,330637,372115
440,700000000461,Ravensdene Park,54.58042151,-5.91227282,335036,372244
441,700000000463,Ravenhill Park,54.57918282,-5.91262968,335017,372105
442,700000000465,Aquinas Diocesan Grammar School,54.57694866,-5.91294942,335004,371856
443,700000000466,Kennedy Centre,54.58179795,-5.97959335,330680,372270
444,700000000467,Cherryvale Park,54.57476434,-5.91341951,334981,371612
445,700000000469,Rosetta Park,54.57236926,-5.91390561,334957,371344
446,700000000470,Beech Hall,54.57857374,-5.97936521,330705,371911
447,700000000471,Rosetta Park,54.5726894,-5.91402667,334948,371380
448,700000000473,St Judes Crescent,54.57519839,-5.91350655,334974,371660
449,700000000474,Fruithill Park,54.57569459,-5.98212885,330535,371586
450,700000000475,St Judes Parade ,54.5767918,-5.91320267,334988,371838
451,700000000476,Casement Park,54.57371623,-5.98742304,330199,371356
452,700000000477,Cecil Street,54.41995848,-6.44648193,300893,353489
453,700000000478,Slievegallion Drive,54.5730786,-5.99182423,329917,371277
454,700000000479,Recycling Centre,54.57980133,-5.91885818,334612,372162
455,700000000481,Cooke Centenary Church,54.57990571,-5.91913648,334594,372173
456,700000000482,Shaw's Road,54.57312964,-5.99745706,329552,371272
457,700000000483,Ridgeway Park,54.4172961,-6.44891698,300742,353189
458,700000000484,St Genevieve's,54.57213294,-6.00046247,329361,371155
459,700000000485,Park Road,54.58003197,-5.91255091,335019,372200
460,700000000487,Ardenlee Avenue,54.58406564,-5.91171294,335060,372650
461,700000000488,Lenadoon Avenue (Andersonstown Road),54.56921936,-6.00759105,328909,370818
462,700000000489,Ardenlee Green,54.58559965,-5.91138914,335076,372822
463,700000000490,Suffolk Road,54.56706865,-6.01193283,328635,370571
464,700000000491,Ballynafoy Close,54.58733842,-5.91105532,335092,373016
465,700000000492,Upper Dunmurry Lane,54.56296128,-6.02016983,328115,370099
466,700000000493,Rochester Street,54.58918073,-5.91068622,335110,373222
467,700000000495,My Ladys Road,54.59102578,-5.91033741,335126,373428
468,700000000496,Twin Spires,54.59929883,-5.94724965,332714,374278
469,700000000497,Ballarat Street,54.59205124,-5.91065957,335102,373541
470,700000000499,Short Strand (Ravenhill Road),54.59557204,-5.91181114,335016,373931
471,700000000501,Mount Conference Centre,54.59456815,-5.90712084,335322,373828
472,700000000502,Clonard,54.59676654,-5.95405619,332282,373983
473,700000000503,Woodstock Link,54.59344737,-5.90641438,335372,373705
474,700000000504,Falls Park,54.58450916,-5.97784113,330784,372575
475,700000000505,Isthmus Street,54.59198684,-5.90370455,335552,373547
476,700000000506,City Cemetery,54.5870461,-5.97158906,331180,372869
477,700000000507,Willowfield,54.5905156,-5.90237464,335643,373386
478,700000000509,Redcar Street,54.58769233,-5.90043681,335777,373076
479,700000000511,Loopland,54.58530908,-5.89927538,335860,372813
480,700000000512,Beechview Park,54.59060959,-5.96774045,331417,373273
481,700000000513,Massey Green,54.60462499,-5.85003687,338977,375059
482,700000000515,Courtney Hall,54.58356681,-5.89852982,335914,372620
483,700000000516,Beechmount,54.59226221,-5.96192063,331788,373467
484,700000000517,Ardenlee,54.58210632,-5.89796854,335955,372459
485,700000000519,Onslow Gardens,54.57989516,-5.89716797,336014,372214
486,700000000520,Children's Hospital,54.59372151,-5.95788927,332044,373637
487,700000000521,Montgomery Road,54.57698838,-5.89614614,336090,371893
488,700000000522,Royal Hospitals (Falls Road),54.59519411,-5.95540143,332200,373806
489,700000000523,Greenway,54.57530743,-5.89555798,336134,371707
490,700000000525,Somme Drive,54.57344539,-5.89492968,336181,371501
491,700000000526,Clonard,54.59829243,-5.95221237,332396,374157
492,700000000527,Cregagh Library,54.57178074,-5.89429574,336227,371317
493,700000000528,Twin Spires,54.59922902,-5.94809535,332659,374269
494,700000000529,Cregagh Terminus,54.57097115,-5.89350704,336281,371228
495,700000000531,Cregagh Park,54.57105347,-5.89396811,336251,371236
496,700000000532,Divis Tower,54.60036253,-5.9428849,332992,374405
497,700000000533,Beechgrove Drive,54.56848328,-5.89628282,336110,370946
498,700000000534,Millfield,54.59973311,-5.93705141,333371,374346
499,700000000535,Knockbreda Primary School,54.56598931,-5.90292154,335689,370656
500,700000000536,Little Patrick Street,54.60561012,-5.92801417,333936,375017
501,700000000537,Knockbreda Primary School,54.56620072,-5.90318354,335671,370679
502,700000000538,York Street,54.6089103,-5.92473541,334137,375391
503,700000000539,Rosetta Road,54.568377,-5.89752639,336030,370932
504,700000000540,St Paul's Church,54.61208257,-5.92362446,334198,375746
505,700000000541,Cregagh Park,54.57014458,-5.8937306,336269,371136
506,700000000542,Mountcollyer Road [York Street],54.61493608,-5.92445445,334135,376062
507,700000000543,The Straight,54.57270205,-5.89483389,336189,371418
508,700000000544,Grove Place,54.61797878,-5.92374217,334171,376402
509,700000000545,Hamel Drive,54.57456117,-5.89546177,336143,371624
510,700000000546,Bute Street,54.61887067,-5.92335612,334193,376502
511,700000000547,Greenway,54.57600712,-5.89598333,336104,371784
512,700000000548,Skegoneill Avenue,54.62184716,-5.92349866,334174,376833
513,700000000549,Bell's Bridge,54.57799688,-5.89667735,336052,372004
514,700000000550,Seaview,54.62347251,-5.92292034,334206,377015
515,700000000551,Burren Way,54.57834163,-5.89920126,335888,372038
516,700000000552,York Park,54.62526694,-5.92329344,334176,377214
517,700000000553,Onslow Park,54.57795547,-5.90088446,335781,371991
518,700000000554,Fortwilliam Crescent,54.62718837,-5.92373754,334141,377427
519,700000000555,Mount Merrion Parish Church,54.57687586,-5.90236937,335688,371868
520,700000000556,Fortwilliam,54.62926444,-5.92324458,334166,377659
521,700000000557,Hughes Court,54.57568103,-5.90237505,335692,371735
522,700000000558,Mount Vernon House,54.63182108,-5.92300586,334173,377944
523,700000000559,Knock Eden Crescent,54.57412333,-5.90294413,335660,371561
524,700000000560,Lowwood Park,54.63353917,-5.92311962,334160,378135
525,700000000561,Mount Merrion Avenue,54.57274126,-5.90439847,335571,371404
526,700000000562,Loughside,54.63477435,-5.92336643,334140,378272
527,700000000563,Mount Merrion Crescent,54.57210304,-5.90558552,335496,371331
528,700000000564,Donegall Park Avenue [Shore Road],54.63736595,-5.92343485,334127,378560
529,700000000565,Knock Eden Crescent,54.57408158,-5.90313583,335648,371556
530,700000000566,Shore Crescent,54.63944593,-5.92332965,334127,378792
531,700000000567,Mount Merrion Parish Church,54.57649587,-5.90264537,335672,371825
532,700000000568,Parkmount,54.64075527,-5.92318543,334132,378938
533,700000000569,Onslow Park,54.5778433,-5.90149191,335742,371978
534,700000000570,Grays Lane,54.64326957,-5.92205023,334197,379220
535,700000000571,Burren Way,54.57851545,-5.89824329,335949,372059
536,700000000572,Greencastle,54.64525573,-5.92050805,334290,379444
537,700000000573,Onslow Gardens,54.57998338,-5.89740031,335999,372224
538,700000000574,M2 Onslip,54.64743658,-5.91983891,334326,379688
539,700000000575,Ardenlee,54.581581,-5.89792129,335960,372401
540,700000000576,Bawnmore,54.64988275,-5.91892371,334377,379962
541,700000000577,Glendower Street,54.58384566,-5.89882474,335894,372651
542,700000000578,Whitehouse,54.65238569,-5.91676584,334508,380245
543,700000000579,Loopland,54.58580055,-5.89963685,335835,372867
544,700000000580,Whitehouse,54.65257916,-5.91584171,334567,380268
545,700000000581,Omeath Street,54.58855527,-5.90114439,335729,373170
546,700000000582,Bawnmore,54.64990118,-5.91863659,334396,379964
547,700000000583,Willowfield Crescent,54.58967973,-5.90189013,335677,373294
548,700000000584,Grays Lane,54.6420619,-5.92235972,334181,379085
549,700000000585,Cherryville Street,54.59255895,-5.90452833,335497,373610
550,700000000586,Parkmount,54.64033016,-5.92302122,334144,378891
551,700000000587,Woodstock Lodge,54.59466528,-5.90732544,335309,373839
552,700000000588,Shore Crescent,54.63831427,-5.92335636,334129,378666
553,700000000589,Locksley House,54.57897162,-5.87784306,337267,372149
554,700000000590,Donegall Park Avenue [Shore Road],54.63731313,-5.92319476,334143,378555
555,700000000591,Lisnasharragh Leisure Centre,54.57774958,-5.88272979,336955,372004
556,700000000592,Loughside,54.63524828,-5.92323385,334147,378325
557,700000000593,Alanbrooke Road,54.57730686,-5.88789523,336623,371944
558,700000000594,Lowwood Park,54.63243099,-5.92294379,334175,378012
559,700000000595,Castlereagh College,54.57751357,-5.8928996,336298,371958
560,700000000596,Mount Vernon,54.63072316,-5.92238038,334217,377823
561,700000000597,Castlereagh College,54.57745308,-5.89445173,336198,371948
562,700000000598,Fortwilliam Crescent,54.62787855,-5.92364043,334145,377504
563,700000000599,Alanbrooke Road,54.57732294,-5.88878911,336565,371944
564,700000000600,York Drive,54.62564398,-5.92327423,334176,377256
565,700000000601,Lisnasharragh Leisure Centre,54.57784053,-5.88285488,336947,372013
566,700000000602,Brownstown Road,54.41703585,-6.45662749,300242,353149
567,700000000603,Locksley House,54.57883045,-5.87818895,337245,372133
568,700000000604,Seaview,54.62415584,-5.92294746,334202,377091
569,700000000605,Casaeldona,54.5766628,-5.87603389,337392,371896
570,700000000606,Skegoneill Avenue,54.62111103,-5.92353616,334174,376751
571,700000000607,Glensharragh,54.5746922,-5.88052786,337108,371668
572,700000000608,Fife Street,54.61988827,-5.92349007,334181,376615
573,700000000609,Lisnasharragh,54.57282141,-5.88414543,336880,371452
574,700000000610,Ivan Street,54.61758458,-5.92380869,334168,376358
575,700000000611,McCaughan Park,54.57148209,-5.88651344,336731,371299
576,700000000612,Mountcollyer Road [York Street],54.61523786,-5.92423783,334148,376096
577,700000000613,St Finnian's Church,54.56994984,-5.89208468,336376,371117
578,700000000614,York Street Station [Bus stop],54.61057378,-5.92261771,334268,375580
579,700000000615,Stirling Avenue,54.57179858,-5.8865787,336726,371334
580,700000000616,St Paul's Church,54.611997,-5.92335017,334216,375737
581,700000000617,Rochester Road,54.57333709,-5.88384872,336897,371510
582,700000000618,York Street Station [Bus stop],54.61071242,-5.92284284,334253,375595
583,700000000619,Clonduff Drive,54.57539923,-5.87960612,337165,371748
584,700000000620,Brougham Street,54.6099574,-5.92439829,334155,375508
585,700000000621,Carncaver Road,54.57702276,-5.87588988,337400,371936
586,700000000622,Upper Canning Street,54.61206341,-5.92674931,333996,375738
587,700000000623,Knock Road,54.57980315,-5.87137003,337683,372254
588,700000000624,Cosgrave Street,54.61404485,-5.92640582,334012,375959
589,700000000625,Clarawood,54.58314618,-5.86400809,338147,372641
590,700000000626,Cosgrave Heights,54.61488825,-5.92795567,333909,376050
591,700000000627,Knockvale Park,54.5867468,-5.85931048,338439,373051
592,700000000628,Newington Presbyterian Church,54.61573636,-5.9305864,333736,376139
593,700000000629,Marie Curie Centre,54.58798776,-5.85700885,338583,373193
594,700000000630,Lawther Street,54.61621833,-5.93217653,333632,376190
595,700000000631,Knock Headquarters,54.58972578,-5.85607862,338637,373389
596,700000000632,Atlantic Avenue,54.61711046,-5.934383,333487,376285
597,700000000633,Knock Headquarters,54.58951356,-5.85585165,338653,373366
598,700000000634,Limestone Road,54.61832226,-5.93755199,333278,376414
599,700000000635,Marie Curie Centre,54.58772073,-5.85717315,338573,373163
600,700000000636,Waterworks [Cavehill Road],54.61919919,-5.93942616,333154,376508
601,700000000637,Knockvale Park,54.58691585,-5.85871929,338476,373071
602,700000000638,Richmond Square,54.6201779,-5.94097147,333051,376614
603,700000000639,Mountpottinger Road,54.5991898,-5.91186549,335000,374333
604,700000000640,Rosemount Gardens,54.62083663,-5.94166592,333004,376686
605,700000000641,Mountpottinger Link,54.59827308,-5.9095642,335152,374236
606,700000000642,Marsden Gardens,54.62220772,-5.94251023,332945,376837
607,700000000643,Madrid Street,54.59640427,-5.90723784,335309,374032
608,700000000644,Dorchester Park,54.41442493,-6.45267388,300505,352864
609,700000000645,Castlereagh Street Junction,54.59484989,-5.90439121,335498,373865
610,700000000646,Madison Avenue,54.6249159,-5.94325616,332888,377137
611,700000000647,Paxton Street,54.59365367,-5.90192296,335661,373736
612,700000000648,Westland Road,54.62662075,-5.94365018,332857,377326
613,700000000649,John Long's Corner,54.59239175,-5.8993214,335834,373601
614,700000000650,Inver Avenue,54.62838368,-5.94428907,332810,377521
615,700000000651,Clara Street,54.59063687,-5.89768075,335945,373409
616,700000000652,Tivoli Gardens,54.63020225,-5.94556019,332722,377721
617,700000000653,Channing Street,54.58877161,-5.89605057,336057,373204
618,700000000654,Shandarragh Park,54.63296862,-5.94762001,332580,378025
619,700000000655,Loopland,54.58761142,-5.89455015,336158,373078
620,700000000656,Sunningdale Park North,54.63272865,-5.95148862,332331,377991
621,700000000657,Loopland Park,54.58615052,-5.89164869,336350,372921
622,700000000658,Kilcoole Park,54.6320429,-5.95663406,332001,377905
623,700000000659,Ladas Drive,54.58540672,-5.89004333,336457,372842
624,700000000660,Carr's Glen,54.63044048,-5.96135606,331701,377718
625,700000000661,Eastside Park and Ride,54.60033774,-5.91168945,335008,374462
626,700000000662,Belfast Boys' Model School,54.63150363,-5.95982056,331797,377839
627,700000000663,Orby Place,54.58386603,-5.88658868,336685,372677
628,700000000664,Kilcoole Park,54.63209039,-5.95678655,331991,377910
629,700000000665,Houston Park,54.58225509,-5.88288303,336930,372505
630,700000000666,Slievedarragh Park,54.63305179,-5.94987709,332434,378030
631,700000000667,Houston Park,54.58153485,-5.88118558,337042,372428
632,700000000668,Shandarragh Park,54.63217258,-5.94730389,332603,377937
633,700000000669,Orby Street,54.58077125,-5.87935076,337163,372346
634,700000000670,Henderson Avenue,54.63069254,-5.9458607,332701,377775
635,700000000671,Montgomery Road,54.57952323,-5.87633367,337363,372213
636,700000000672,Inver Avenue,54.62815452,-5.94402188,332828,377496
637,700000000673,Clonduff,54.57873064,-5.87450068,337484,372129
638,700000000674,Charnwood Avenue,54.62705035,-5.94355107,332862,377374
639,700000000675,Brentwood Park,54.57774987,-5.87158525,337676,372025
640,700000000676,Indiana Avenue,54.62515802,-5.94322846,332889,377164
641,700000000677,Ballygowan Road,54.57590151,-5.86864647,337872,371825
642,700000000678,Cedar Avenue,54.62380669,-5.94301793,332907,377014
643,700000000679,Glen Road,54.57677018,-5.86649001,338008,371926
644,700000000680,Marsden Gardens,54.62238595,-5.94242382,332950,376857
645,700000000681,Roddens Gardens,54.57919016,-5.86590111,338038,372197
646,700000000682,Rosemount Gardens,54.62071572,-5.94142429,333020,376673
647,700000000683,Whincroft Road,54.58111097,-5.86629568,338006,372410
648,700000000684,Camberwell Terrace,54.61853547,-5.93791145,333254,376437
649,700000000685,Glen Rise,54.57993788,-5.86397489,338160,372284
650,700000000686,Atlantic Avenue,54.61762538,-5.93565062,333403,376340
651,700000000687,Braeside Grove,54.57915567,-5.86191217,338296,372201
652,700000000688,Currie Primary School,54.61611957,-5.93165516,333666,376180
653,700000000689,Ravenswood Park,54.57786384,-5.85897913,338490,372063
654,700000000690,Cosgrave Heights,54.61509263,-5.9283478,333883,376072
655,700000000691,Creevy Avenue,54.57793754,-5.85401018,338811,372081
656,700000000692,Mervue Street,54.61334623,-5.92622649,334026,375881
657,700000000693,Braniel Church,54.57844098,-5.85149341,338972,372142
658,700000000694,Upper Canning Street,54.61221799,-5.92639755,334019,375756
659,700000000695,Woodview Drive,54.579369,-5.85062476,339025,372247
660,700000000696,Brougham Street,54.61028642,-5.9247221,334133,375544
661,700000000697,Braniel,54.58036489,-5.84902547,339125,372361
662,700000000698,Glenabbey,55.03757888,-7.32966129,242907,421337
663,700000000699,Lower Braniel Road,54.58052237,-5.8453923,339360,372386
664,700000000700,Mountcollyer Road,54.61542999,-5.92635559,334011,376113
665,700000000701,Briarwood Park,54.58228449,-5.84077202,339652,372591
666,700000000702,Castleton Avenue,54.61696114,-5.9255177,334060,376285
667,700000000703,Geary Road,54.58292176,-5.83836824,339805,372667
668,700000000704,Esther Street,54.61800676,-5.92747203,333930,376398
669,700000000705,Sandale Park,55.03398974,-7.31474423,243813,420949
670,700000000706,Elim Christian Centre,54.61853637,-5.92954228,333801,376454
671,700000000708,Jellicoe Avenue,54.61980024,-5.9314684,333666,376589
672,700000000710,Grove Playing Field,54.62166882,-5.93092454,333695,376798
673,700000000712,Skegoneill Drive,54.62332646,-5.93170752,333639,376981
674,700000000714,Fortwilliam Parade,54.62494903,-5.93318187,333538,377166
675,700000000715,Briarwood Park,54.58261623,-5.84022852,339686,372628
676,700000000716,Somerton Mews,54.62635472,-5.93383022,333492,377314
677,700000000717,Lower Braniel Road,54.58023104,-5.84604711,339318,372351
678,700000000718,Fortwilliam Park,54.62840522,-5.93499613,333410,377540
679,700000000719,Woodview Drive,54.57935728,-5.85047069,339035,372245
680,700000000720,Dominican College,54.6304188,-5.93550553,333371,377769
681,700000000721,Braniel Church,54.57828323,-5.85171826,338958,372123
682,700000000722,Somerton Road,54.63184752,-5.93525541,333385,377954
683,700000000723,Creevy Avenue,54.57785572,-5.85446304,338782,372070
684,700000000724,Lansdowne Road,54.6343838,-5.934151,333445,378207
685,700000000725,Braniel Primary School,54.57777221,-5.85938609,338464,372051
686,700000000726,Glastonbury Avenue,54.63568656,-5.93362026,333475,378353
687,700000000727,The Square,54.57874956,-5.86232014,338271,372154
688,700000000728,Castle Avenue,54.63733573,-5.93338171,333485,378537
689,700000000729,Glen Rise,54.58008888,-5.86438463,338133,372299
690,700000000730,Castle Gardens,54.63858744,-5.92986386,333708,378683
691,700000000731,Whincroft Road,54.58104731,-5.86625261,338009,372402
692,700000000732,Downview Avenue,54.6401727,-5.92956642,333722,378860
693,700000000733,Roddens Gardens,54.57878262,-5.86570944,338051,372152
694,700000000734,Waterloo Gardens,54.6395873,-5.93246936,333535,378795
695,700000000735,Glen Road,54.57650634,-5.86656728,338004,371896
696,700000000736,Innisfayle Road,54.63807529,-5.9330189,333506,378620
697,700000000737,Ballygowan Road,54.57562246,-5.86865977,337872,371790
698,700000000738,Castle Avenue,54.63716516,-5.93339036,333485,378518
699,700000000739,Brentwood Park,54.57761589,-5.87148755,337685,372002
700,700000000740,Glastonbury Avenue,54.63519439,-5.93373816,333469,378298
701,700000000741,Clonduff,54.57859888,-5.87462559,337479,372112
702,700000000742,Lansdowne Road,54.63379342,-5.93430485,333437,378141
703,700000000743,Marshalls Road,54.58139726,-5.88123849,337031,372408
704,700000000744,Somerton Road,54.63237633,-5.93498072,333398,377982
705,700000000745,Orangefield Crescent,54.58262213,-5.8841368,336851,372541
706,700000000746,Dominican College,54.63032961,-5.93545513,333377,377759
707,700000000747,Trigo Parade,54.58375,-5.886737,336680,372666
708,700000000748,Fortwilliam Park,54.62760652,-5.93452557,333443,377452
709,700000000749,Ladas Drive,54.58540071,-5.89040652,336435,372839
710,700000000750,Somerton Mews,54.62639446,-5.93374336,333497,377323
711,700000000751,Loopland,54.58659554,-5.89288893,336268,372969
712,700000000752,Fortwilliam Parade,54.62447128,-5.93313453,333542,377117
713,700000000754,Skegoneil Drive,54.62342362,-5.93160968,333645,376992
714,700000000755,Ardgowan Street,54.58898901,-5.89648099,336035,373222
715,700000000756,Grove Playing Field,54.62140769,-5.93089134,333698,376769
716,700000000757,Clara Street,54.59037739,-5.89767574,335947,373381
717,700000000758,Jellicoe Avenue,54.61957476,-5.93141791,333670,376564
718,700000000759,John Long's Corner,54.59200905,-5.89918658,335849,373551
719,700000000760,Elim Christian Centre,54.61878419,-5.92984782,333774,376479
720,700000000761,Paxton Street,54.59369717,-5.90227995,335642,373738
721,700000000762,Esther Street,54.61786807,-5.92619403,334013,376384
722,700000000763,Castlereagh Street Junction,54.59473117,-5.90441612,335499,373852
723,700000000764,Castleton Avenue,54.61670835,-5.9255939,334065,376247
724,700000000765,The Green,54.59575481,-5.90630441,335371,373961
725,700000000766,Mountcollyer Road,54.61537002,-5.92618177,334022,376106
726,700000000767,Mountpottinger Road,54.59688784,-5.90834502,335245,374087
727,700000000768,The Flats,54.58917459,-5.79238256,342756,373454
728,700000000769,Mountpottinger Link,54.59832652,-5.91096396,335064,374238
729,700000000770,Cairnburn Gardens,54.60705952,-5.85222439,338865,375338
730,700000000771,Sirocco Works,54.59892313,-5.91230393,334974,374301
731,700000000772,Felden,54.65389342,-5.92239721,334125,380416
732,700000000773,Old Holywood Road (Kennelbridge),54.61017747,-5.85245379,338801,375664
733,700000000774,Arthur Road,54.65447201,-5.92722165,333819,380458
734,700000000775,Pottinger Street,54.59273887,-5.90320087,335582,373627
735,700000000776,McIlroy Court,54.65455751,-5.92795462,333783,380464
736,700000000777,Calvin Street,54.59276618,-5.90122021,335709,373636
737,700000000778,Longlands Road,54.65603901,-5.92182918,334174,380640
738,700000000779,Trillick Street,54.59257424,-5.89905608,335850,373621
739,700000000780,Abbeycentre,54.65715741,-5.91873779,334365,380771
740,700000000781,Avoniel Road,54.591998,-5.89620335,336036,373561
741,700000000782,Abbeycentre,54.65655067,-5.91689365,334486,380707
742,700000000783,Elmgrove,54.59165949,-5.89252075,336276,373530
743,700000000784,Abbeycentre,54.65491959,-5.919751,334307,380520
744,700000000785,Bloomfield Mill,54.59277507,-5.88950306,336466,373662
745,700000000786,Longlands Road,54.65583709,-5.92190467,334165,380618
746,700000000787,St Donards,54.59344841,-5.88608423,336683,373744
747,700000000788,Felden,54.65396244,-5.92236821,334142,380411
748,700000000789,Lichfield Avenue,54.59247966,-5.88339864,336855,373642
749,700000000790,Bawnmore Park,54.6524674,-5.91913436,334349,380246
750,700000000791,Bloomfield,54.59137781,-5.8804095,337058,373524
751,700000000792,North Street,54.60228852,-5.93252683,333655,374638
752,700000000793,North Road,54.5937333,-5.87617824,337328,373783
753,700000000794,Peter's Hill,54.60314185,-5.93672424,333381,374725
754,700000000795,Cyprus Gardens,54.5952922,-5.87540509,337368,373970
755,700000000796,Lower Shankill,54.60356301,-5.94193416,333043,374762
756,700000000797,Orangefield Road,54.59255944,-5.87714779,337259,373657
757,700000000798,Agnes Street,54.60388105,-5.94637551,332755,374789
758,700000000799,Bloomfield Roundabout,54.59134016,-5.88085302,337034,373515
759,700000000800,Spier's Place,54.60405333,-5.94964799,332543,374802
760,700000000801,Lichfield Avenue,54.59254489,-5.88392287,336829,373648
761,700000000803,Holycroft Avenue,54.59319493,-5.88816274,336550,373710
762,700000000805,Abetta Parade,54.5921791,-5.89036947,336410,373594
763,700000000807,Elmgrove,54.59155297,-5.8928663,336253,373521
764,700000000809,Clara Street,54.59168071,-5.89530211,336095,373530
765,700000000811,Trillick Street,54.59231326,-5.89827704,335903,373593
766,700000000812,Woodvale Park,54.60764953,-5.963121734,331661,375177
767,700000000813,Calvin Street,54.59268491,-5.90153363,335683,373625
768,700000000814,Ballygomartin Group Practice,54.60899009,-5.96481956,331548,375329
769,700000000815,Hewitt Parade,54.59463054,-5.86856985,337814,373906
770,700000000816,Springhill Primary School,54.60283438,-5.98190067,330463,374606
771,700000000817,Kilcooley Terminus,54.64938463,-5.70031521,348422,380353
772,700000000818,Highcliff Gardens,54.60417568,-5.98010832,330578,374764
773,700000000819,Kings Road,54.59265021,-5.86762045,337885,373693
774,700000000820,Ballymagarry Lane,54.60573856,-5.97851331,330678,374932
775,700000000821,Clara Park,54.59075681,-5.86506168,338097,373444
776,700000000822,Lyndhurst Gardens,54.60774814,-5.97484698,330903,375166
777,700000000823,Richhill Crescent,54.58794784,-5.86191062,338252,373191
778,700000000824,West Circular Road,54.60888942,-5.97271507,331039,375292
779,700000000825,Sandown Road,54.5867307,-5.86052707,338358,373044
780,700000000826,Glencairn Crescent,54.60980821,-5.97001694,331204,375401
781,700000000827,Sandown Road,54.58691002,-5.8609652,338332,373065
782,700000000828,Springhill Primary School,54.60271901,-5.98184477,330472,374597
783,700000000829,Knockvale Park ,54.58848759,-5.86291116,338203,373240
784,700000000830,Black Mountain Way,54.60157664,-5.98174402,330478,374476
785,700000000831,Clara Park,54.59061515,-5.8650711,338068,373455
786,700000000832,Ballygomartin Group Practice,54.60951301,-5.96703523,331402,375377
787,700000000833,Kings Road,54.59265255,-5.86770816,337877,373679
788,700000000834,Black Mountain Way,54.60142001,-5.9816766,330482,374449
789,700000000835,Ring Road,54.64765682,-5.68531406,349536,380121
790,700000000836,Glencairn Crescent,54.60966425,-5.96908643,331269,375390
791,700000000837,Hewitt Parade,54.5942287,-5.86850557,337820,373862
792,700000000838,West Circular Road,54.60809015,-5.97380841,330969,375206
793,700000000839,Knock Grove,54.58474713,-5.86511551,338070,372816
794,700000000840,Ballygomartin Road,54.60683214,-5.97648671,330800,375061
795,700000000841,Ring Road,54.64748904,-5.68564297,349531,380086
796,700000000842,Glencairn Road,54.61027013,-5.97295345,331022,375442
797,700000000843,Clarawood Shops,54.58553335,-5.86689989,337952,372900
798,700000000844,Forthriver Pass,54.6118061,-5.97452219,330891,375641
799,700000000845,Clarawood Flats,54.58542812,-5.86908671,337811,372884
800,700000000846,Forthriver Scout Hall,54.61343426,-5.97706087,330762,375775
801,700000000847,Clarawood Flats,54.58552885,-5.86903469,337820,372900
802,700000000848,Forthriver Way,54.61522344,-5.9785417,330629,376005
803,700000000849,Clarawood Grove,54.58626217,-5.87001781,337748,372975
804,700000000850,Forthriver Drive,54.61649057,-5.98031859,330519,376141
805,700000000851,Clarawood Park,54.5880771,-5.86873921,337827,373179
806,700000000852,Glencairn Mission Hall,54.61890545,-5.98229391,330407,376362
807,700000000853,Clarawood Park,54.58815803,-5.86788908,337878,373187
808,700000000854,Forthriver Parade,54.62061242,-5.98449826,330236,376589
809,700000000855,Castlehill Road,54.5954754,-5.84584584,339279,374048
810,700000000856,Glencairn,54.62151143,-5.98481659,330227,376658
811,700000000857,Campbell College Grounds,54.59817593,-5.84511518,339317,374350
812,700000000858,Forthriver Dale,54.62005549,-5.98325171,330326,376518
813,700000000859,Castlehill Park,54.59845118,-5.84493041,339328,374381
814,700000000860,Glencairn Mission Hall,54.61882199,-5.98192296,330401,376397
815,700000000861,Netherleigh Park,54.60273322,-5.84384457,339388,374860
816,700000000862,Forthriver Drive,54.61677894,-5.98026452,330513,376178
817,700000000863,Netherleigh Park,54.60281797,-5.84366248,339392,374870
818,700000000864,Forthriver Way,54.6145588,-5.97759663,330693,375938
819,700000000865,Castle Buildings,54.59864285,-5.82890081,340377,374454
820,700000000866,Forthriver Scout Hall,54.61298416,-5.97599279,330797,375757
821,700000000867,Stoney Road,54.59488059,-5.82445664,340674,374026
822,700000000868,Forthriver Pass,54.6118713,-5.97429897,330899,375648
823,700000000869,Holywood Arches,54.59765041,-5.88806559,336572,374205
824,700000000870,Glencairn Road,54.61057601,-5.97277289,331028,375477
825,700000000872,Mount Eden Court,54.61058632,-5.96336014,331644,375502
826,700000000873,Beersbridge Road,54.59651242,-5.88271339,336893,374091
827,700000000875,Oakland Avenue,54.59622886,-5.8789864,337212,374066
828,700000000876,Woodvale Road,54.61270323,-5.96387327,331600,375730
829,700000000877,North Road (Upper Newtownards Road),54.59581453,-5.87394121,337461,374030
830,700000000878,Ardoyne Shops,54.61430484,-5.96588977,331442,375937
831,700000000880,Mountainview Place,54.61490712,-5.96677135,331403,375980
832,700000000881,Ballyhackamore,54.59531223,-5.87054973,337679,373983
833,700000000882,Everton Complex,54.615986,-5.96844171,331292,376096
834,700000000883,North Road (Upper Newtownards Road),54.59609342,-5.87739995,337242,374055
835,700000000884,Somerdale Park,54.6166332,-5.96941291,331226,376166
836,700000000886,Mercy Primary School,54.61753709,-5.97075944,331137,376265
837,700000000887,Beersbridge Road,54.59632849,-5.8824627,336905,374073
838,700000000888,Abbeydale Park,54.61824643,-5.97190019,331064,376341
839,700000000889,Holywood Arches,54.59743058,-5.88727383,336582,374186
840,700000000890,Wheatfield Gardens,54.61910686,-5.97322803,330973,376435
841,700000000891,Montgomery Road,54.57995685,-5.87781799,337265,372258
842,700000000892,Glenside Park,54.62087143,-5.97598834,330820,376592
843,700000000894,Glenbank Corner,54.62200101,-5.97692927,330724,376754
844,700000000895,Greenwood Park,54.59492859,-5.86087431,338311,373961
845,700000000896,Springvale Gardens,54.62390235,-5.97753507,330693,376947
846,700000000898,Ligoniel Park,54.62412244,-5.97947624,330556,376979
847,700000000899,Knock Road (Upper Newtownards Road),54.59480358,-5.85746112,338538,373949
848,700000000900,Limehill Street,54.62539311,-5.98295901,330387,377071
849,700000000902,Ligoniel Community Centre,54.62609873,-5.98395372,330277,377166
850,700000000903,Cabin Hill,54.59444466,-5.84851534,339110,373928
851,700000000904,Wolfhill Centre,54.62730501,-5.98588524,330133,377323
852,700000000906,Ligoniel Place,54.62850271,-5.98724917,330038,377448
853,700000000907,Stormont,54.59457556,-5.84224151,339515,373955
854,700000000908,Lever Street,54.62958568,-5.98818983,329973,377570
855,700000000909,Summerhill Avenue,54.5947466,-5.83672373,339871,373985
856,700000000910,Wolfhill,54.63143994,-5.98983097,329855,377774
857,700000000911,Rosepark,54.59467288,-5.82809317,340429,373994
858,700000000912,Lever Street,54.629424,-5.98783169,329995,377552
859,700000000913,Dundonald House,54.59422275,-5.82604364,340563,373948
860,700000000914,Donegall Street,54.6042731,-5.93111764,333737,374868
861,700000000916,Donegall Street,54.60503651,-5.93201575,333688,374936
862,700000000917,Comber Road,54.59490948,-5.81577866,341224,374045
863,700000000918,Clifton House,54.6057491,-5.93341231,333592,375024
864,700000000919,Ulster Hospital,54.59507704,-5.81179296,341489,374065
865,700000000920,Carlisle Circus Clifton Street,54.60712398,-5.93600414,333419,375168
866,700000000921,Ulster Hospital,54.59522362,-5.81170096,341489,374081
867,700000000922,Mater Hospital,54.60822969,-5.94030616,333146,375285
868,700000000923,Comber Road,54.59424783,-5.81994561,340957,373963
869,700000000924,Agnes Street,54.60904034,-5.94424077,332877,375367
870,700000000926,Albertville Drive,54.61001977,-5.94922507,332553,375468
871,700000000927,Ardcarn,54.59404308,-5.82354646,340725,373933
872,700000000928,St Mary's Church,54.61036775,-5.95093474,332444,375500
873,700000000929,Rosepark,54.59424228,-5.8266306,340525,373949
874,700000000930,Tennent Street,54.61096969,-5.95395877,332241,375562
875,700000000931,Summerhill Avenue,54.59477143,-5.83509765,339976,373991
876,700000000932,Flax Street,54.61156538,-5.95690066,332052,375621
877,700000000934,Kerrera Street,54.61322462,-5.963137,331650,375783
878,700000000935,Stormont,54.59444587,-5.8425269,339497,373940
879,700000000936,Mountainhill Walk,54.62826976,-5.98509702,330162,377426
880,700000000938,Old Mill Road,54.62869514,-5.98303415,330313,377481
881,700000000939,Cabin Hill,54.59436011,-5.85033023,338993,373915
882,700000000940,Mountainhill Road,54.62779681,-5.97984012,330515,377400
883,700000000942,Mountainhill Road,54.6285804,-5.98343168,330278,377462
884,700000000943,Knock Road (Upper Newtownards Road),54.59467613,-5.85705093,338554,373937
885,700000000944,Wolfhill Centre,54.62758156,-5.98604446,330123,377353
886,700000000946,Ligoniel Church,54.62675766,-5.98477755,330207,377268
887,700000000947,Greenwood Park,54.59486869,-5.86233895,338211,373948
888,700000000948,Limehill Street,54.62551092,-5.98283965,330361,377101
889,700000000949,Astoria Gardens,54.5949714,-5.8650355,338030,373954
890,700000000950,Ligoniel Park,54.6243968,-5.98010517,330514,377006
891,700000000952,Springvale Gardens,54.62403549,-5.97804305,330644,376959
892,700000000953,Connswater Shopping Centre,54.59585429,-5.88978833,336438,374004
893,700000000954,Leggagh Court,54.62408279,-5.97573012,330797,376980
894,700000000955,Greenville Road,54.59021552,-5.88242614,336934,373389
895,700000000956,Tedburn Park,54.62415785,-5.97395167,330904,376999
896,700000000957,Grand Parade,54.58619177,-5.88741173,336623,372933
897,700000000958,Bilston Road,54.62507894,-5.97478536,330846,377089
898,700000000959,Orby Drive,54.58556335,-5.88849774,336556,372856
899,700000000960,Bilston Road,54.62350346,-5.97250816,331019,376907
900,700000000961,Donovan Parade,54.58412769,-5.89019892,336453,372699
901,700000000962,Ballysillan Leisure Centre,54.62436419,-5.97007997,331159,377020
902,700000000963,Donovan Parade,54.58385783,-5.89080309,336418,372669
903,700000000964,Silverstream Gardens,54.62583579,-5.96814335,331273,377175
904,700000000965,Cregagh Congregational Church,54.57980371,-5.89540969,336110,372182
905,700000000966,Carr's Glen Park,54.62827077,-5.96638701,331376,377477
906,700000000967,Cregagh Congregational Church,54.58010758,-5.89531222,336082,372159
907,700000000968,Ballysillan Drive,54.62969313,-5.96815621,331270,377614
908,700000000969,Finsbury Drive,54.5823075,-5.89924424,335872,372478
909,700000000970,Silverstream,54.63153186,-5.97055166,331116,377810
910,700000000971,Kensington Park,54.66416285,-5.68651661,349258,382027
911,700000000972,Silverstream (Ballysillan Park),54.63156249,-5.9702717,331122,377825
912,700000000973,Paisley's Church,54.5836063,-5.91116775,335097,372601
913,700000000974,Clareglen,54.63028895,-5.96871464,331232,377690
914,700000000975,Finsbury Drive,54.58248801,-5.89858945,335915,372495
915,700000000976,Bradbury Place,54.58909686,-5.93447037,333567,373155
916,700000000977,Upper Crescent,54.58686717,-5.9357365,333502,372909
917,700000000978,Ballysillan Road,54.62981433,-5.9631435,331588,377640
918,700000000979,Queen's University Belfast,54.58390409,-5.93649721,333467,372584
919,700000000980,Carr's Glen,54.6304882,-5.96194668,331663,377721
920,700000000981,Ulster Museum,54.58226707,-5.93620004,333482,372406
921,700000000982,Wallasey Park,54.62890858,-5.96403398,331527,377536
922,700000000983,Ashby Buildings,54.58050894,-5.93543287,333544,372213
923,700000000984,Formby Park,54.62796426,-5.96520112,331461,377434
924,700000000985,Sandhurst Drive,54.57851534,-5.93400226,333633,371996
925,700000000986,Silverstream Gardens,54.62552041,-5.96830635,331268,377153
926,700000000987,Stranmillis Mews,54.57613653,-5.93316888,333703,371723
927,700000000988,Bilston Road,54.62358126,-5.97296927,330984,376924
928,700000000989,Stranmillis College,54.57320313,-5.93305394,333717,371397
929,700000000990,Tedburn Park,54.62444577,-5.97479958,330869,377015
930,700000000991,Sharman Road,54.57172544,-5.93440539,333633,371231
931,700000000992,Glenbank Corner,54.62297821,-5.976266,330764,376861
932,700000000993,Richmond Park,54.5700922,-5.93841576,333377,371043
933,700000000994,Glenside Park,54.62078338,-5.97554173,330819,376608
934,700000000995,Broomhill Park,54.5698274,-5.94132524,333208,371009
935,700000000996,Abbeydale Park,54.61841063,-5.97186232,331062,376356
936,700000000997,Richmond Park,54.57044213,-5.93752782,333398,371063
937,700000000998,Mercy Primary School,54.6178982,-5.97105628,331113,376301
938,700000000999,Sharman Road,54.57217682,-5.93409098,333646,371268
939,700000001000,Somerdale Park,54.61651775,-5.96894944,331260,376158
940,700000001001,Stranmillis College,54.5744441,-5.93321357,333700,371538
941,700000001002,Everton Complex,54.61580288,-5.96788999,331325,376075
942,700000001003,Ridgeway Street,54.57725959,-5.93368135,333661,371846
943,700000001004,Mountainview Place,54.61527964,-5.96707277,331379,376018
944,700000001005,Ashby Buildings,54.58016229,-5.93527934,333550,372163
945,700000001006,Ardoyne Shops,54.61414692,-5.96531348,331484,375909
946,700000001007,Ulster Museum,54.58276089,-5.93653975,333464,372437
947,700000001008,Woodvale Road,54.61298316,-5.963985321,331588,375769
948,700000001009,Queen's University Belfast,54.58477713,-5.9365456,333460,372694
949,700000001010,Mount Eden Court,54.61056506,-5.96317267,331657,375497
950,700000001011,Upper Crescent,54.58729246,-5.93585055,333486,372961
951,700000001013,Bradbury Place,54.58865729,-5.93510501,333533,373116
952,700000001014,Woodvale Park,54.60772289,-5.96305703,331678,375197
953,700000001016,Cambrai Street,54.6063907,-5.96045939,331833,375044
954,700000001017,Northern Road,54.61395133,-5.91995318,334429,375960
955,700000001018,Mayo Street,54.60562207,-5.95910328,331916,374964
956,700000001019,Milewater Road,54.61680667,-5.91827476,334528,376281
957,700000001020,Glenwood Street,54.60472544,-5.95698144,332067,374863
958,700000001021,Milewater Service Centre,54.61932827,-5.91495648,334734,376568
959,700000001023,Duncrue Street,54.62054704,-5.91320643,334843,376707
960,700000001024,Berlin Street,54.60437536,-5.95221651,332376,374833
961,700000001025,Bretland House,54.6216906,-5.91334917,334830,376834
962,700000001026,Spier's Place,54.60410149,-5.94818116,332635,374817
963,700000001027,Duncrue Road,54.62243346,-5.91578862,334670,376912
964,700000001029,Duncrue Pass,54.623766,-5.91542626,334689,377061
965,700000001030,Lower Shankill,54.60367687,-5.94188135,333038,374780
966,700000001031,Duncrue Link,54.62596718,-5.91489556,334716,377307
967,700000001032,Peter's Hill,54.60326953,-5.93708618,333344,374747
968,700000001033,Quayside Office Park,54.62643444,-5.91281205,334849,377363
969,700000001034,North Street,54.60272736,-5.9334951,333591,374685
970,700000001035,Dargan Court,54.62646514,-5.90997819,335043,377369
971,700000001036,Kerrera Street,54.61310394,-5.96246922,331686,375783
972,700000001037,Fortwilliam Industrial Park,54.62755592,-5.90803132,335154,377497
973,700000001038,Cambria Street,54.61155242,-5.95622422,332106,375615
974,700000001039,Dargan Road,54.62984198,-5.90741918,335217,377753
975,700000001040,Tennent Street,54.6108548,-5.95285669,332314,375551
976,700000001041,West Bank Road,54.62942783,-5.89576249,335940,377729
977,700000001042,Century Street,54.60981983,-5.94757815,332619,375457
978,700000001043,West Bank Close,54.63037027,-5.89363852,336074,377838
979,700000001044,Agnes Street,54.60908082,-5.94380269,332902,375373
980,700000001045,West Bank Way,54.63199921,-5.89017794,336292,378026
981,700000001046,Mater Hospital,54.60821765,-5.93938762,333195,375284
982,700000001047,Container Terminal,54.6341074,-5.88638244,336530,378268
983,700000001048,Carlisle Circus Clifton Street,54.60728431,-5.9358969,333410,375190
984,700000001049,Container Terminal,54.63383971,-5.88648926,336524,378238
985,700000001050,Clifton House,54.60615207,-5.93373449,333563,375063
986,700000001051,West Bank Way,54.63174238,-5.89039258,336279,377997
987,700000001052,Donegall Street,54.60492511,-5.93173177,333705,374928
988,700000001053,West Bank Drive,54.63089991,-5.89206239,336174,377900
989,700000001054,Shannon Street,54.60993496,-5.94700577,332693,375460
990,700000001055,West Bank Close,54.63013085,-5.89382125,336063,377811
991,700000001056,Oldpark Library,54.61068668,-5.94789841,332625,375575
992,700000001057,Dargan Road,54.62963032,-5.90744472,335185,377729
993,700000001058,Hillview Road,54.61227332,-5.94798075,332624,375720
994,700000001059,Duncrue Crescent,54.62810659,-5.9144299,334739,377546
995,700000001060,Churchview Court,54.61435485,-5.94923365,332535,375954
996,700000001061,Duncrue Link,54.6255513,-5.9147465,334727,377261
997,700000001062,Ardoyne Avenue,54.61568657,-5.95106626,332412,376099
998,700000001063,Duncrue Pass,54.62344993,-5.91533404,334696,377026
999,700000001064,Marrowbone Park,54.61681629,-5.9534832,332258,376214
1000,700000001065,Milewater Service Centre,54.61967643,-5.91430386,334775,376608
1001,700000001066,Oldpark Grange,54.6178688,-5.95430086,332197,376330
1002,700000001067,Northern Road,54.61520382,-5.9191152,334479,376101
1003,700000001068,Torrens Crescent,54.6192225,-5.95346577,332251,376484
1004,700000001069,Eglantine Avenue,54.5812276,-5.938104,333360,372283
1005,700000001070,Cliftonville Circus,54.62155135,-5.95520911,332127,376739
1006,700000001071,Chlorine Gardens,54.57984524,-5.93892871,333314,372122
1007,700000001072,Dunkeld Gardens,54.62291454,-5.95934115,331862,376881
1008,700000001073,Sans Souci Park,54.57768751,-5.94143642,333156,371884
1009,700000001075,Beechlands,54.57608257,-5.94413857,332990,371698
1010,700000001076,Deerpark Road,54.62395315,-5.96175754,331698,376994
1011,700000001077,Notting Hill,54.57310843,-5.94668408,332835,371366
1012,700000001078,Joanmount Park,54.62540843,-5.9638629,331561,377149
1013,700000001079,Cranmore Park,54.57107725,-5.9471253,332812,371137
1014,700000001080,Oldpark Shops,54.62667065,-5.9658618,331426,377287
1015,700000001081,Osbourne,54.56855525,-5.94817234,332750,370848
1016,700000001082,Oldpark Shops,54.62640063,-5.96518628,331467,377260
1017,700000001083,Bladon Drive,54.5675344,-5.94914363,332686,370709
1018,700000001084,Carr's Glen Primary School,54.62484897,-5.96274869,331629,377089
1019,700000001085,Myrtlefield Park,54.56582135,-5.95026154,332626,370542
1020,700000001086,Deerpark Road,54.62384571,-5.96134192,331721,376981
1021,700000001087,Newforge Lane,54.55542321,-5.94871932,332762,369392
1022,700000001088,Dunkeld Gardens,54.62286928,-5.9587663,331893,376879
1023,700000001089,Balmoral Avenue,54.56273667,-5.9521566,332514,370192
1024,700000001090,Cliftonville Circus,54.62183997,-5.95548855,332060,376794
1025,700000001091,Mount Eden Park,54.56080684,-5.95308023,332463,369984
1026,700000001092,Oldpark Road Roundabout,54.62061448,-5.95400195,332208,376637
1027,700000001093,Malone Hill Park,54.5597775,-5.95410169,332397,369857
1028,700000001094,Cambourne Park,54.55810934,-5.95775923,332167,369674
1029,700000001095,Torrens Crescent,54.61930032,-5.95330091,332258,376489
1030,700000001096,Bristow Park,54.55797141,-5.95935111,332065,369655
1031,700000001097,Oldpark Grange,54.61837702,-5.95358069,332240,376385
1032,700000001098,Greenview Park,54.55758125,-5.96232337,331874,369606
1033,700000001099,Marrowbone Park,54.6168936,-5.95334679,332263,376222
1034,700000001100,Malton Drive,54.55575083,-5.96567647,331663,369396
1035,700000001102,Dub Lane,54.55501108,-5.96751737,331549,369310
1036,700000001103,Oldpark Avenue,54.61525518,-5.95021933,332468,376046
1037,700000001104,Malone Heights,54.55410188,-5.97142071,331320,369209
1038,700000001105,Hillview Road,54.61260999,-5.94776389,332638,375764
1039,700000001106,Malone View,54.55248278,-5.97419153,331123,369019
1040,700000001107,Hillview Court,54.6117677,-5.94783592,332635,375664
1041,700000001108,Trossachs,54.55152846,-5.97632981,330981,368916
1042,700000001109,Shannon Street,54.61023228,-5.94723078,332679,375491
1043,700000001110,Chippendale Court,54.55404429,-5.97861395,330832,369180
1044,700000001111,Shalom House,54.61402672,-5.93763474,333293,375925
1045,700000001112,Erinvale Avenue,54.55596275,-5.98067702,330691,369383
1046,700000001113,Belfast Royal Academy,54.61461854,-5.93985438,333141,375995
1047,700000001114,De Beere Court,54.55665991,-5.98106911,330667,369467
1048,700000001115,Manor Street,54.6156726,-5.94252973,332966,376109
1049,700000001116,Finaghy Youth Centre,54.55812494,-5.98243676,330573,369626
1050,700000001117,Glenard Brook,54.61699545,-5.94561788,332774,376242
1051,700000001118,Finaghy Health Centre,54.56007844,-5.98429083,330451,369841
1052,700000001119,Elimgrove Street,54.61838414,-5.94857113,332566,376399
1053,700000001120,Finaghy Park Central,54.56229531,-5.98632563,330310,370090
1054,700000001121,Knutsford Drive,54.61939962,-5.95070313,332425,376508
1055,700000001122,Orchardville,54.56650699,-5.98992765,330060,370548
1056,700000001123,Kingsmere Avenue,54.62044354,-5.9528564,332289,376619
1057,700000001124,Ladybrook Shops,54.56853184,-5.99282792,329866,370768
1058,700000001125,Kelvin Parade,54.62014057,-5.95197593,332342,376587
1059,700000001126,Ladybrook Avenue,54.5666936,-5.99738702,329577,370555
1060,700000001127,Chestnut Gardens,54.6176462,-5.94677985,332683,376315
1061,700000001128,Ladybrook Cross,54.56597855,-6.00032905,329389,370470
1062,700000001129,Glenard Brook,54.61683641,-5.94494101,332805,376231
1063,700000001130,Ladybrook Terminus,54.56549256,-6.00003124,329407,370422
1064,700000001131,Manor Street,54.61561582,-5.9421197,332993,376099
1065,700000001132,Ladybrook Avenue,54.56680775,-5.9972268,329587,370568
1066,700000001133,Belfast Royal Academy,54.61433982,-5.9383999,333236,375966
1067,700000001134,Ladybrook Shops,54.56866695,-5.99286283,329868,370780
1068,700000001135,Duncairn Gardens,54.61499952,-5.93657313,333352,376045
1069,700000001136,Orchardville,54.5661053,-5.98938331,330087,370523
1070,700000001137,Halliday's Road,54.61408501,-5.93424014,333506,375944
1071,700000001138,Finaghy Park Central,54.56221017,-5.98602643,330326,370077
1072,700000001139,Edlingham Street,54.61318409,-5.93176951,333672,375850
1073,700000001140,Finaghy Health Centre,54.56045601,-5.98434442,330441,369880
1074,700000001141,Adam Street,54.6124216,-5.92960196,333807,375766
1075,700000001142,Benmore Walk,54.55551953,-5.97979519,330757,369327
1076,700000001143,North City Business Centre,54.61158786,-5.92752048,333937,375689
1077,700000001144,Chippendale Court,54.55363982,-5.97807946,330868,369134
1078,700000001145,North City Business Centre,54.61212574,-5.92925126,333836,375737
1079,700000001146,Trossachs,54.55196126,-5.97651525,330974,368954
1080,700000001147,Adam Street,54.61244424,-5.93009022,333783,375771
1081,700000001148,Malone View,54.55234102,-5.9747647,331094,368992
1082,700000001149,Edlingham Street,54.61319663,-5.93240069,333634,375860
1083,700000001150,Malone Heights,54.55461297,-5.96986523,331396,369260
1084,700000001151,Halliday's Road,54.61426262,-5.93498491,333457,375966
1085,700000001152,Malton Drive,54.55602142,-5.96534272,331680,369425
1086,700000001153,Carlisle Circus Antrim Road,54.60824479,-5.93661578,333371,375295
1087,700000001154,Fleming Fulton,54.55696433,-5.96375638,331784,369534
1088,700000001155,Lincoln Avenue,54.60902956,-5.93637619,333384,375377
1089,700000001156,Harberton Park,54.55777879,-5.96204673,331896,369627
1090,700000001157,Kane Cottage,54.61146662,-5.93607002,333400,375653
1091,700000001158,House of Sport,54.55807565,-5.95860534,332115,369668
1092,700000001159,New Lodge Road,54.61306855,-5.93647155,333385,375826
1093,700000001160,Malone Hill Park,54.55943682,-5.95460287,332370,369832
1094,700000001161,Cliftonville Road,54.61436448,-5.93686025,333338,375971
1095,700000001162,Mount Eden Park,54.56098556,-5.95312415,332457,370000
1096,700000001163,Regent House School,54.58863295,-5.70282686,348544,373577
1097,700000001164,Balmoral Avenue,54.56398883,-5.95170702,332541,370341
1098,700000001165,Eia Street,54.61555631,-5.93765526,333290,376107
1099,700000001166,Myrtlefield Park,54.56520519,-5.95087618,332604,370508
1100,700000001167,Waterworks [Antrim Road],54.61749094,-5.93833505,333234,376312
1101,700000001168,Osbourne,54.56851567,-5.94847906,332734,370849
1102,700000001169,Richmond Lane,54.6192927,-5.93858536,333208,376519
1103,700000001170,Cranmore Park,54.57160466,-5.94737632,332795,371197
1104,700000001171,Willowbank Gardens,54.6219183,-5.93817385,333226,376812
1105,700000001172,Notting Hill,54.57316905,-5.9468379,332825,371370
1106,700000001173,Kansas Avenue,54.62404458,-5.93851534,333197,377048
1107,700000001174,Malone Road (Victoria College),54.57423767,-5.94615999,332860,371478
1108,700000001175,Salisbury Avenue,54.62618277,-5.93797359,333225,377287
1109,700000001176,Adelaide Park,54.57560003,-5.94500617,332939,371656
1110,700000001177,Firmount,54.62833701,-5.93890217,333158,377525
1111,700000001178,Chichester Avenue,54.63014989,-5.93877949,333160,377727
1112,700000001179,Windsor Avenue,54.57813275,-5.94072614,333204,371934
1113,700000001180,North Circular Road,54.63324866,-5.93766245,333222,378074
1114,700000001181,Eglantine Avenue,54.5806404,-5.93859616,333333,372212
1115,700000001182,Belfast Castle,54.63549933,-5.93686699,333266,378326
1116,700000001183,Methodist College,54.5824532,-5.93750458,333392,372410
1117,700000001184,Donegall Park Avenue [Antrim Road],54.63916812,-5.93651077,333277,378735
1118,700000001185,Hydebank,54.54516847,-5.92874799,334088,368287
1119,700000001186,Downview Avenue [Antrim Road],54.64071274,-5.9364635,333275,378907
1120,700000001187,Fountainville Ave,54.58778023,-5.93692145,333426,373019
1121,700000001188,City Hospital,54.58624116,-5.93990159,333236,372847
1122,700000001189,Downview Lodge,54.64287863,-5.93596646,333300,379149
1123,700000001190,Ulsterville Avenue,54.58408055,-5.94312065,333037,372590
1124,700000001191,Gray's Lane,54.64525575,-5.93521078,333341,379415
1125,700000001192,Melrose Street,54.58207888,-5.9468156,332784,372343
1126,700000001193,Serpentine Road,54.64735167,-5.93482561,333359,379649
1127,700000001194,Windsor Avenue,54.5808756,-5.948474,332668,372189
1128,700000001195,Ben Madigan Park,54.65158258,-5.93476597,333349,380120
1129,700000001196,Windsor Road,54.5794943,-5.9502759,332585,372062
1130,700000001197,Kincraig Park,54.6540484,-5.9365779,333224,380391
1131,700000001198,Ethel Street,54.57859906,-5.95126477,332516,371965
1132,700000001199,Tree Tops,54.65639442,-5.93780207,333133,380650
1133,700000001200,Brookland Street,54.57739338,-5.9527504,332429,371829
1134,700000001201,Hazelwood Park,54.65783394,-5.94014595,332966,380831
1135,700000001202,Marlborough Park,54.57521967,-5.95548982,332254,371584
1136,700000001203,Bellevue Park,54.65962166,-5.94306813,332787,380999
1137,700000001204,Cranmore Avenue,54.57403024,-5.95737318,332141,371446
1138,700000001205,Belfast Zoological Gardens (Zoo),54.66313299,-5.94719955,332509,381382
1139,700000001206,Lancefield Road,54.57293597,-5.95908271,332034,371321
1140,700000001207,Bellevue Bridge,54.66403801,-5.94811489,332447,381481
1141,700000001208,Maryville Park,54.5716253,-5.96128237,331896,371171
1142,700000001209,Elmfield,54.66674352,-5.95083065,332263,381777
1143,700000001210,Malone Park,54.56986395,-5.96440585,331705,370977
1144,700000001211,Church Road,54.66853674,-5.95386884,332071,381969
1145,700000001212,King's Hall,54.56784445,-5.96851329,331411,370714
1146,700000001213,Glengormley Centre,54.67019432,-5.9574616,331820,382156
1147,700000001214,Kings Court,54.5662549,-5.97288855,331165,370545
1148,700000001215,Harmin Parade,54.67279242,-5.96106819,331583,382431
1149,700000001216,Balmoral Park,54.56516599,-5.97578379,330979,370425
1150,700000001217,Rose Park,54.67406753,-5.96422905,331375,382567
1151,700000001218,Priory Park,54.56429136,-5.97828559,330820,370323
1152,700000001219,Burney's Lane,54.67524075,-5.9673296,331187,382685
1153,700000001220,Swanston Road,54.67691821,-5.97241246,330838,382869
1154,700000001221,Sicily Park,54.56266454,-5.97762248,330864,370141
1155,700000001222,Sandyknowes,54.67748079,-5.97435355,330711,382928
1156,700000001223,Locksley Gardens,54.55972179,-5.97491452,331051,369817
1157,700000001224,Sandyknowes,54.67773329,-5.97494567,330672,382955
1158,700000001225,Finnis Drive,54.5591914,-5.97290804,331183,369763
1159,700000001226,Swanston Park,54.6762734,-5.96985534,331005,382802
1160,700000001227,Sicily Park Shops,54.56010072,-5.9753227,331029,369857
1161,700000001228,Sicily Park,54.56343583,-5.97852743,330809,370226
1162,700000001229,Burney's Lane,54.67503096,-5.96649095,331226,382670
1163,700000001230,Marguerite Park,54.56379951,-5.97950049,330743,370266
1164,700000001231,Rose Park,54.67432618,-5.96465022,331347,382595
1165,700000001232,Grangeville Drive,54.56227411,-5.98286512,330546,370097
1166,700000001233,Harmin Parade,54.67242848,-5.96026477,331636,382392
1167,700000001234,Finaghy Crossroads,54.56054861,-5.98613079,330331,369908
1168,700000001235,Glengormley Centre,54.66975927,-5.95649206,331888,382102
1169,700000001236,Upton Park,54.55876696,-5.98914902,330135,369688
1170,700000001237,Church Road,54.66829578,-5.95282968,332129,381946
1171,700000001238,Hunterhouse College,54.55687329,-5.99145464,329948,369368
1172,700000001239,Elmfield,54.66711474,-5.95099797,332251,381818
1173,700000001240,Blacks Road,54.55577104,-5.99233195,329940,369358
1174,700000001241,Cardigan Drive,54.61894632,-5.94951874,332511,376454
1175,700000001242,Dunmurry Lane,54.55260184,-5.99996847,329450,368985
1176,700000001243,Abbeydale Crescent,54.6200739,-5.97387027,330864,376548
1177,700000001244,Dunmurry Village,54.55084693,-6.00423677,329180,368787
1178,700000001245,O'Neill Road,54.66477618,-5.94872869,332405,381562
1179,700000001246,Grange Hill,54.54854568,-6.00946653,328853,368513
1180,700000001247,Belfast Zoological Gardens (Zoo),54.66297637,-5.94675297,332539,381354
1181,700000001248,Seymour Hill,54.54432725,-6.01356647,328601,368036
1182,700000001249,Floral Road,54.66130103,-5.94484444,332656,381192
1183,700000001250,Ballybog Road,54.54140678,-6.01299754,328647,367712
1184,700000001251,Floral Park,54.66013744,-5.94344282,332762,381045
1185,700000001252,River Road,54.53846225,-6.01410948,328622,367433
1186,700000001253,Bellevue Park,54.65882755,-5.9412795,332905,380914
1187,700000001254,Ballybog Road,54.54190682,-6.01394835,328582,367775
1188,700000001255,Hazelwood Park,54.65779444,-5.93998249,332992,380808
1189,700000001256,Seymour Hill,54.54486017,-6.01299049,328633,368105
1190,700000001257,Tree Tops,54.65670868,-5.93822984,333125,380673
1191,700000001258,Grange Hill,54.54891775,-6.00923553,328863,368545
1192,700000001259,Thronemount,54.65263107,-5.93513116,333322,380236
1193,700000001260,Dunmurry Halt,54.55030447,-6.00662442,329052,368722
1194,700000001261,Ben Madigan Park,54.65147116,-5.93455469,333363,380108
1195,700000001262,Dunmurry Village,54.5513109,-6.00346086,329236,368821
1196,700000001263,Serpentine Road,54.64702348,-5.93454788,333378,379613
1197,700000001264,Beechlawn Park,54.55341706,-5.99921257,329501,369074
1198,700000001265,Downview Lodge,54.64347324,-5.93553353,333326,379216
1199,700000001266,Blacks Road,54.55642471,-5.99195109,329957,369408
1200,700000001267,Downview Lodge,54.64234924,-5.93600878,333299,379090
1201,700000001268,Upton Park,54.55849815,-5.98973426,330098,369657
1202,700000001269,Downview Avenue [Antrim Road],54.64050309,-5.93628823,333287,378884
1203,700000001270,Lowe Memorial Church,54.55990836,-5.9875468,330235,369818
1204,700000001271,Donegall Park Avenue [Antrim Road],54.63841985,-5.93636279,333289,378652
1205,700000001272,Finaghy Crossroads,54.56184429,-5.98401907,330457,370040
1206,700000001273,Belfast Castle,54.63666057,-5.93646741,333288,378456
1207,700000001274,Donegall Park,54.56318584,-5.9811488,330645,370200
1208,700000001275,North Circular Road,54.63370097,-5.93731429,333243,378125
1209,700000001276,Beechmount Park,54.56500117,-5.9766733,330922,370405
1210,700000001277,Chichester Avenue,54.63023677,-5.93860474,333171,377737
1211,700000001278,Kings Court,54.56603219,-5.97385441,331101,370525
1212,700000001279,Firmount,54.62827022,-5.93867325,333173,377518
1213,700000001280,King's Hall,54.56800344,-5.9688076,331438,370781
1214,700000001281,Salisbury Avenue,54.62547885,-5.93779241,333239,377209
1215,700000001282,Malone Park,54.5698242,-5.9647744,331676,370964
1216,700000001283,Glandore Avenue,54.62435588,-5.93832926,333208,377083
1217,700000001284,Lislea Park,54.57056492,-5.96340754,331762,371049
1218,700000001285,Hopefield Avenue,54.6225203,-5.93817437,333224,376879
1219,700000001286,Osborne Park,54.5719961,-5.96089269,331920,371213
1220,700000001287,Alexandra Park Avenue,54.6207165,-5.93789795,333245,376677
1221,700000001288,Capstone Street,54.57324549,-5.95878886,332052,371356
1222,700000001289,Richmond Lane,54.61950447,-5.93835789,333222,376543
1223,700000001290,Marlborough Park,54.57530457,-5.95568547,332246,371591
1224,700000001291,Waterworks [Antrim Road],54.61808983,-5.93825563,333234,376383
1225,700000001292,Brookland Street,54.57755771,-5.95277255,332431,371846
1226,700000001293,Eia Street,54.61583312,-5.93744165,333291,376133
1227,700000001294,Windsor Road,54.57972045,-5.95024132,332586,372095
1228,700000001295,Cliftonville Road,54.6146204,-5.93674462,333340,375998
1229,700000001296,Windsor Avenue,54.58114912,-5.94833831,332703,372259
1230,700000001297,New Lodge Road,54.61313845,-5.93601899,333399,375839
1231,700000001298,Melrose Street,54.58207336,-5.94707282,332779,372361
1232,700000001299,Dawson Street,54.61057536,-5.93580308,333414,375559
1233,700000001300,Ashley Avenue,54.58356618,-5.94440582,332945,372529
1234,700000001301,Carlisle Circus Antrim Road,54.60840491,-5.93634569,333387,375309
1235,700000001302,Ulsterville Avenue,54.58413407,-5.9431957,333026,372603
1236,700000001303,Catherine Court,54.646666,-5.92100929,334253,379599
1237,700000001304,City Hospital,54.58655736,-5.93969151,333233,372856
1238,700000001305,Hazelwood College,54.64756516,-5.92209443,334180,379697
1239,700000001306,Fountainville Ave,54.58741531,-5.93810328,333346,372970
1240,700000001307,Serpentine Road,54.64933619,-5.92434916,334033,379889
1241,700000001308,Youth Hostel,54.58935022,-5.93544102,333509,373193
1242,700000001309,Vandyck Gardens,54.65060454,-5.92590601,333924,380028
1243,700000001310,Oban Street,54.58909502,-5.93872549,333300,373160
1244,700000001311,White City,54.65176542,-5.92753259,333820,380157
1245,700000001312,Abingdon Drive,54.58877046,-5.94280403,333035,373114
1246,700000001313,Upper Whitewell,54.65445681,-5.93102501,333581,380447
1247,700000001314,Egeria Street,54.58865264,-5.94616014,332824,373095
1248,700000001315,Throne Centre,54.65638227,-5.93343737,333424,380656
1249,700000001316,Richview Court,54.58891104,-5.95022641,332559,373117
1250,700000001317,Fairyknowe Park,54.6581634,-5.93604386,333245,380850
1251,700000001318,Kilburn Street,54.58876844,-5.95434585,332298,373096
1252,700000001319,Bellevue Park,54.66035217,-5.93958976,333013,381084
1253,700000001320,Broadway,54.5885927,-5.95670621,332137,373068
1254,700000001321,Bellevue Park,54.6601098,-5.93901385,333047,381061
1255,700000001322,Castlebawn Tesco,54.58664926,-5.69022405,349419,373422
1256,700000001323,Fairyknowe Park,54.65809713,-5.93584574,333258,380843
1257,700000001324,Throne Centre,54.65636373,-5.93325265,333431,380655
1258,700000001325,Tates Avenue,54.58540675,-5.9569276,332133,372713
1259,700000001326,Upper Whitewell,54.65394958,-5.93026048,333632,380392
1260,700000001327,Donegall Parade,54.58477604,-5.95363316,332348,372649
1261,700000001328,White City,54.65176084,-5.92731917,333829,380154
1262,700000001329,Donegall Avenue,54.58643563,-5.95149908,332473,372850
1263,700000001330,Vandyck Gardens,54.65086912,-5.92614046,333908,380057
1264,700000001331,Pembroke Street,54.58833306,-5.95011988,332560,373036
1265,700000001332,Veryan Gardens,54.64985829,-5.92482842,333996,379947
1266,700000001333,Olympia Leisure Centre,54.58451787,-5.95943342,331960,372582
1267,700000001334,Serpentine Road,54.64875609,-5.92342813,334090,379827
1268,700000001335,East Mount,54.59117339,-5.67173461,350481,373936
1269,700000001336,Catherine Court,54.64695646,-5.92118038,334241,379631
1270,700000001337,Burnreagh Drive,54.58854508,-5.67184714,350549,373628
1271,700000001338,Old Church Road,54.65727067,-5.92324175,334074,380775
1272,700000001339,Shane Retail Park,54.57149675,-5.97079423,331287,371153
1273,700000001340,Abbey Retail Park,54.65813159,-5.92375823,334040,380870
1274,700000001341,Musgrave Park,54.5714935,-5.97300017,331129,371148
1275,700000001342,Valley Retail Park,54.66131546,-5.92700311,333818,381218
1276,700000001343,Park Centre,54.58816624,-5.96268178,331722,373026
1277,700000001344,Valley Leisure Centre,54.66315305,-5.93042793,333591,381416
1278,700000001345,St James's Place,54.58879368,-5.96603142,331525,373083
1279,700000001346,Valley Business Centre,54.66665398,-5.93392362,333354,381799
1280,700000001347,St James's Parade ,54.58912382,-5.96776855,331425,373112
1281,700000001348,Valley Business Centre,54.66667932,-5.93382932,333360,381802
1282,700000001349,Elmwood Avenue,54.58441736,-5.93754141,333389,372638
1283,700000001350,Valley Leisure Centre,54.66337678,-5.93039043,333594,381434
1284,700000001351,Blackstaff Road,54.57655278,-5.97863737,330758,371687
1285,700000001352,Valley Retail Park,54.66163441,-5.92722773,333801,381253
1286,700000001353,Musgrave Park,54.57189427,-5.97354807,331102,371178
1287,700000001354,Abbey Retail Park,54.65839476,-5.92370304,334041,380898
1288,700000001355,Boucher Playing Fields,54.57380921,-5.96850043,331429,371409
1289,700000001356,Northern Regional College,54.6662494,-5.9038205,335295,381808
1290,700000001357,Burnreagh Drive,54.58834321,-5.6720686,350537,373605
1291,700000001358,Abbey Court,54.67081046,-5.90235076,335377,382322
1292,700000001359,SOS Group,54.58198101,-5.9610436,331878,372324
1293,700000001360,Fernagh Avenue,54.67248204,-5.9075667,335035,382498
1294,700000001361,Olympia Leisure Centre,54.58454365,-5.95974555,331959,372615
1295,700000001362,Cloughfern Station Road,54.67299165,-5.91086978,334820,382548
1296,700000001363,Glenmachan Street,54.58661578,-5.95829036,332041,372845
1297,700000001364,O`Neill Road,54.67136535,-5.92081844,334121,382356
1298,700000001365,St James's Parade ,54.58930446,-5.96802666,331403,373126
1299,700000001366,Gransha Grove,54.67044354,-5.92365633,333941,382248
1300,700000001367,St James's Avenue,54.58886852,-5.96565249,331556,373078
1301,700000001368,Drumcree Place,54.66885191,-5.92989255,333544,382059
1302,700000001369,Park Centre,54.58842216,-5.96305781,331746,373030
1303,700000001370,Carnmoney Cemetery,54.66975026,-5.93899062,333017,382134
1304,700000001371,Broadway,54.58870627,-5.95651486,332149,373081
1305,700000001372,Glebe Road,54.67186256,-5.94342568,332708,382366
1306,700000001373,Maldon Street,54.58891608,-5.95240869,332403,373119
1307,700000001374,Archvale Drive,54.67490978,-5.94705492,332480,382693
1308,700000001375,Glebe Lodge,54.67797118,-5.94797027,332411,383032
1309,700000001376,Richview Court,54.58898611,-5.95042998,332532,373121
1310,700000001377,Carnhill Road,54.68088973,-5.95106385,332202,383351
1311,700000001378,Egeria Street,54.5887135,-5.94536197,332873,373099
1312,700000001379,Ferndale Avenue,54.68145796,-5.95278747,332089,383411
1313,700000001380,Abingdon Drive,54.58886782,-5.94273056,333040,373121
1314,700000001381,Ferndale,54.68266835,-5.95713768,331802,383534
1315,700000001382,Oban Street,54.58926887,-5.93780267,333359,373174
1316,700000001383,Glebe Road,54.6849277,-5.96140575,331522,383781
1317,700000001384,Youth Hostel,54.58946934,-5.93508965,333530,373200
1318,700000001385,Carnview Road,54.68571692,-5.96131966,331525,383869
1319,700000001386,Waverley Gardens,54.68800818,-5.95439631,331964,384137
1320,700000001387,Waverley Gardens,54.68784777,-5.95442852,331923,384098
1321,700000001388,Prince Charles Way,54.68440568,-5.96028435,331596,383725
1322,700000001389,Ferndale,54.68279037,-5.95720193,331800,383551
1323,700000001390,Carnhill Road,54.68090244,-5.95075308,332222,383353
1324,700000001391,Glebe Lodge,54.67804935,-5.94781128,332421,383041
1325,700000001392,Glebe Road,54.67185392,-5.94275979,332767,382361
1326,700000001393,Carnmoney Cemetery,54.66987462,-5.93890681,333022,382148
1327,700000001394,Drumcree Place,54.66884138,-5.93085432,333482,382056
1328,700000001395,Centra Stores,54.67073052,-5.92309903,333976,382281
1329,700000001396,Knockenagh  Avenue,54.67154964,-5.92056094,334137,382377
1330,700000001397,Princes Drive,54.67324229,-5.91192974,334752,382572
1331,700000001398,Fernagh Avenue,54.6727643,-5.90872276,334960,382525
1332,700000001399,Whiteabbey Train Station [bus stop],54.67221969,-5.90601908,335136,382472
1333,700000001400,Abbey Court,54.67100752,-5.9025602,335377,382334
1334,700000001401,Northern Regional College,54.66804594,-5.90199722,335409,382015
1335,700000001402,Loughshore Manor,54.66228507,-5.90692568,335108,381359
1336,700000001403,Doagh Road,54.66130524,-5.90759888,335070,381254
1337,700000001404,Loughshore Manor,54.66227598,-5.90709949,335099,381363
1338,700000001405,Abbey Park,54.66232305,-5.90974381,334931,381362
1339,700000001406,Rush Park,54.66395126,-5.91110501,334825,381564
1340,700000001407,Green End Doagh Road,54.66651816,-5.91254805,334734,381824
1341,700000001408,Abbots Cross,54.66869563,-5.91296918,334702,382066
1342,700000001409,Heather Park,54.6704484,-5.91322885,334678,382256
1343,700000001410,Cloughfern Corner,54.67273656,-5.91349467,334651,382515
1344,700000001411,Knockenagh Avenue,54.675075,-5.91465444,334570,382769
1345,700000001412,Kings Road,54.6779312,-5.91648568,334446,383079
1346,700000001413,Hillcrest Villas,54.68020623,-5.91790262,334344,383338
1347,700000001414,Cherrylands,54.68218449,-5.91914801,334264,383533
1348,700000001415,Aspen Park,54.68632652,-5.92245791,334032,384005
1349,700000001416,Three Mile Water,54.68932389,-5.92647373,333764,384334
1350,700000001417,Nelson Street Bus Lane,54.61055801,-5.92065259,334395,375581
1351,700000001418,Dock Street,54.60857181,-5.92219341,334302,375357
1352,700000001419,Nelson Street Bridge,54.60620148,-5.92438824,334168,375089
1353,700000001420,Dunbar Link,54.60456411,-5.92788422,333936,374906
1354,700000001421,CastleCourt,54.60170079,-5.93133248,333744,374554
1355,700000001422,CastleCourt,54.60035011,-5.93071504,333783,374438
1356,700000001423,CastleCourt,54.59972887,-5.93041087,333808,374366
1357,700000001424,King Street,54.59830509,-5.93473453,333524,374190
1358,700000001425,Wellington Place,54.5971852,-5.93411629,333569,374067
1359,700000001426,Wellington Place,54.59719365,-5.93355878,333605,374069
1360,700000001427,Queen Street,54.59782702,-5.93346776,333608,374142
1361,700000001428,Queen Street,54.59842036,-5.93335862,333611,374186
1362,700000001429,Queen Street,54.59866959,-5.93325285,333623,374241
1363,700000001430,Donegall Place,54.59756379,-5.92998084,333835,374117
1364,700000001431,Donegall Square East,54.59679993,-5.92857361,333930,374049
1365,700000001432,Donegall Square East,54.5966037,-5.92862499,333933,374019
1366,700000001433,Donegall Square East,54.59637768,-5.92857728,333935,373979
1367,700000001434,Donegall Square South,54.59600515,-5.9292711,333888,373940
1368,700000001435,Howard Street,54.59585771,-5.93204859,333702,373920
1369,700000001436,Chichester Street,54.59744063,-5.92800501,333948,374106
1370,700000001437,Chichester Street,54.59752919,-5.92602253,334107,374129
1371,700000001440,Three Mile Water,54.69009039,-5.92727774,333702,384419
1372,700000001441,Bridge Road,54.68798566,-5.92447506,333893,384189
1373,700000001442,Aspen Park,54.68616378,-5.92202171,334080,383963
1374,700000001443,Cherrylands,54.68277646,-5.91942731,334236,383621
1375,700000001444,Hillcrest Villas,54.68102475,-5.91829853,334315,383428
1376,700000001445,Glenville,54.68165526,-5.91066146,334805,383511
1377,700000001446,Newtownabbey Depot,54.68278285,-5.9104018,334818,383639
1378,700000001447,Glenville,54.6813789,-5.91095,334787,383483
1379,700000001448,Kings Road,54.67837013,-5.91659813,334433,383136
1380,700000001449,Knockenagh Avenue,54.67485,-5.9143274,334589,382748
1381,700000001450,Cloughfern Corner,54.67229756,-5.91327652,334665,382468
1382,700000001451,Heather Park,54.67067908,-5.91312028,334683,382284
1383,700000001452,Abbots Cross,54.6680897,-5.91268863,334718,382002
1384,700000001453,Green End Doagh Road,54.66634743,-5.91237743,334745,381806
1385,700000001454,Rush Park,54.66391724,-5.91090901,334834,381564
1386,700000001455,Abbey Park,54.66214522,-5.90946654,334947,381340
1387,700000001456,Ballyduff Road,54.68812457,-5.92601893,333789,384202
